[{"id":"00001.01251","latitude":51.5262,"longitude":-0.08563,"category_icon_url":"http:\/\/comroads.com\/images\/categories\/icon_44.png","category_hover_icon_url":"http:\/\/comroads.com\/images\/categories\/hover\/icon_44.png","title":"Old Street e of Vince St","url":"http:\/\/ar.comroads.com\/live-feed\/old-street-e-of-vince-st-0000101251","country_code":"GB","thumbnail_url":"https:\/\/s3-eu-west-1.amazonaws.com\/jamcams.tfl.gov.uk\/00001.01251.jpg","source":"jamcams-camera-list.xml"},{"id":"00001.01252","latitude":51.527,"longitude":-0.08051,"category_icon_url":"http:\/\/comroads.com\/images\/categories\/icon_44.png","category_hover_icon_url":"http:\/\/comroads.com\/images\/categories\/hover\/icon_44.png","title":"Curtain Rd \/ Old Street","url":"http:\/\/ar.comroads.com\/live-feed\/curtain-rd-old-street-0000101252","country_code":"GB","thumbnail_url":"https:\/\/s3-eu-west-1.amazonaws.com\/jamcams.tfl.gov.uk\/00001.01252.jpg","source":"jamcams-camera-list.xml"},{"id":"00001.01301","latitude":51.5244,"longitude":-0.08028,"category_icon_url":"http:\/\/comroads.com\/images\/categories\/icon_44.png","category_hover_icon_url":"http:\/\/comroads.com\/images\/categories\/hover\/icon_44.png","title":"Gt Eastern St\/Curtain Rd","url":"http:\/\/ar.comroads.com\/live-feed\/gt-eastern-stcurtain-rd-0000101301","country_code":"GB","thumbnail_url":"https:\/\/s3-eu-west-1.amazonaws.com\/jamcams.tfl.gov.uk\/00001.01301.jpg","source":"jamcams-camera-list.xml"},{"id":"00001.01302","latitude":51.5241,"longitude":-0.07984,"category_icon_url":"http:\/\/comroads.com\/images\/categories\/icon_44.png","category_hover_icon_url":"http:\/\/comroads.com\/images\/categories\/hover\/icon_44.png","title":"Gt Eastern St\/Holywell Ln","url":"http:\/\/ar.comroads.com\/live-feed\/gt-eastern-stholywell-ln-0000101302","country_code":"GB","thumbnail_url":"https:\/\/s3-eu-west-1.amazonaws.com\/jamcams.tfl.gov.uk\/00001.01302.jpg","source":"jamcams-camera-list.xml"},{"id":"00001.01350","latitude":51.5297,"longitude":-0.08708,"category_icon_url":"http:\/\/comroads.com\/images\/categories\/icon_44.png","category_hover_icon_url":"http:\/\/comroads.com\/images\/categories\/hover\/icon_44.png","title":"East Road\/Vestry Street","url":"http:\/\/ar.comroads.com\/live-feed\/east-roadvestry-street-0000101350","country_code":"GB","thumbnail_url":"https:\/\/s3-eu-west-1.amazonaws.com\/jamcams.tfl.gov.uk\/00001.01350.jpg","source":"jamcams-camera-list.xml"},{"id":"00001.01400","latitude":51.5228,"longitude":-0.07762,"category_icon_url":"http:\/\/comroads.com\/images\/categories\/icon_44.png","category_hover_icon_url":"http:\/\/comroads.com\/images\/categories\/hover\/icon_44.png","title":"Shoreditch High St\/Commercial St","url":"http:\/\/ar.comroads.com\/live-feed\/shoreditch-high-stcommercial-st-0000101400","country_code":"GB","thumbnail_url":"https:\/\/s3-eu-west-1.amazonaws.com\/jamcams.tfl.gov.uk\/00001.01400.jpg","source":"jamcams-camera-list.xml"},{"id":"00001.01401","latitude":51.5239,"longitude":-0.07727,"category_icon_url":"http:\/\/comroads.com\/images\/categories\/icon_44.png","category_hover_icon_url":"http:\/\/comroads.com\/images\/categories\/hover\/icon_44.png","title":"A10 North of Holywell Ln","url":"http:\/\/ar.comroads.com\/live-feed\/a10-north-of-holywell-ln-0000101401","country_code":"GB","thumbnail_url":"https:\/\/s3-eu-west-1.amazonaws.com\/jamcams.tfl.gov.uk\/00001.01401.jpg","source":"jamcams-camera-list.xml"},{"id":"00001.01402","latitude":51.5274,"longitude":-0.07797,"category_icon_url":"http:\/\/comroads.com\/images\/categories\/icon_44.png","category_hover_icon_url":"http:\/\/comroads.com\/images\/categories\/hover\/icon_44.png","title":"Kingsland Rd\/Hackney Rd","url":"http:\/\/ar.comroads.com\/live-feed\/kingsland-rdhackney-rd-0000101402","country_code":"GB","thumbnail_url":"https:\/\/s3-eu-west-1.amazonaws.com\/jamcams.tfl.gov.uk\/00001.01402.jpg","source":"jamcams-camera-list.xml"},{"id":"00001.01403","latitude":51.5289,"longitude":-0.07774,"category_icon_url":"http:\/\/comroads.com\/images\/categories\/icon_44.png","category_hover_icon_url":"http:\/\/comroads.com\/images\/categories\/hover\/icon_44.png","title":"A10 North of Waterson St","url":"http:\/\/ar.comroads.com\/live-feed\/a10-north-of-waterson-st-0000101403","country_code":"GB","thumbnail_url":"https:\/\/s3-eu-west-1.amazonaws.com\/jamcams.tfl.gov.uk\/00001.01403.jpg","source":"jamcams-camera-list.xml"},{"id":"00001.01404","latitude":51.5312,"longitude":-0.07699,"category_icon_url":"http:\/\/comroads.com\/images\/categories\/icon_44.png","category_hover_icon_url":"http:\/\/comroads.com\/images\/categories\/hover\/icon_44.png","title":"A10 North of Shenfield St","url":"http:\/\/ar.comroads.com\/live-feed\/a10-north-of-shenfield-st-0000101404","country_code":"GB","thumbnail_url":"https:\/\/s3-eu-west-1.amazonaws.com\/jamcams.tfl.gov.uk\/00001.01404.jpg","source":"jamcams-camera-list.xml"},{"id":"00001.01405","latitude":51.5328,"longitude":-0.07704,"category_icon_url":"http:\/\/comroads.com\/images\/categories\/icon_44.png","category_hover_icon_url":"http:\/\/comroads.com\/images\/categories\/hover\/icon_44.png","title":"A10 South of Pearson St","url":"http:\/\/ar.comroads.com\/live-feed\/a10-south-of-pearson-st-0000101405","country_code":"GB","thumbnail_url":"https:\/\/s3-eu-west-1.amazonaws.com\/jamcams.tfl.gov.uk\/00001.01405.jpg","source":"jamcams-camera-list.xml"},{"id":"00001.01406","latitude":51.5349,"longitude":-0.07688,"category_icon_url":"http:\/\/comroads.com\/images\/categories\/icon_44.png","category_hover_icon_url":"http:\/\/comroads.com\/images\/categories\/hover\/icon_44.png","title":"A10 South of Laburnum St","url":"http:\/\/ar.comroads.com\/live-feed\/a10-south-of-laburnum-st-0000101406","country_code":"GB","thumbnail_url":"https:\/\/s3-eu-west-1.amazonaws.com\/jamcams.tfl.gov.uk\/00001.01406.jpg","source":"jamcams-camera-list.xml"},{"id":"00001.01407","latitude":51.5386,"longitude":-0.07685,"category_icon_url":"http:\/\/comroads.com\/images\/categories\/icon_44.png","category_hover_icon_url":"http:\/\/comroads.com\/images\/categories\/hover\/icon_44.png","title":"A10 North of Lee Street","url":"http:\/\/ar.comroads.com\/live-feed\/a10-north-of-lee-street-0000101407","country_code":"GB","thumbnail_url":"https:\/\/s3-eu-west-1.amazonaws.com\/jamcams.tfl.gov.uk\/00001.01407.jpg","source":"jamcams-camera-list.xml"},{"id":"00001.01408","latitude":51.5391,"longitude":-0.07662,"category_icon_url":"http:\/\/comroads.com\/images\/categories\/icon_44.png","category_hover_icon_url":"http:\/\/comroads.com\/images\/categories\/hover\/icon_44.png","title":"A10 \/ Downham Road","url":"http:\/\/ar.comroads.com\/live-feed\/a10-downham-road-0000101408","country_code":"GB","thumbnail_url":"https:\/\/s3-eu-west-1.amazonaws.com\/jamcams.tfl.gov.uk\/00001.01408.jpg","source":"jamcams-camera-list.xml"},{"id":"00001.01409","latitude":51.5405,"longitude":-0.07668,"category_icon_url":"http:\/\/comroads.com\/images\/categories\/icon_44.png","category_hover_icon_url":"http:\/\/comroads.com\/images\/categories\/hover\/icon_44.png","title":"A10 South of St Peters Way","url":"http:\/\/ar.comroads.com\/live-feed\/a10-south-of-st-peters-way-0000101409","country_code":"GB","thumbnail_url":"https:\/\/s3-eu-west-1.amazonaws.com\/jamcams.tfl.gov.uk\/00001.01409.jpg","source":"jamcams-camera-list.xml"},{"id":"00001.01410","latitude":51.5444,"longitude":-0.07616,"category_icon_url":"http:\/\/comroads.com\/images\/categories\/icon_44.png","category_hover_icon_url":"http:\/\/comroads.com\/images\/categories\/hover\/icon_44.png","title":"A10 Kingsland Rd\/Stamford St","url":"http:\/\/ar.comroads.com\/live-feed\/a10-kingsland-rdstamford-st-0000101410","country_code":"GB","thumbnail_url":"https:\/\/s3-eu-west-1.amazonaws.com\/jamcams.tfl.gov.uk\/00001.01410.jpg","source":"jamcams-camera-list.xml"},{"id":"00001.01411","latitude":51.5463,"longitude":-0.07566,"category_icon_url":"http:\/\/comroads.com\/images\/categories\/icon_44.png","category_hover_icon_url":"http:\/\/comroads.com\/images\/categories\/hover\/icon_44.png","title":"Kingsland Rd\/Balls Pond Rd","url":"http:\/\/ar.comroads.com\/live-feed\/kingsland-rdballs-pond-rd-0000101411","country_code":"GB","thumbnail_url":"https:\/\/s3-eu-west-1.amazonaws.com\/jamcams.tfl.gov.uk\/00001.01411.jpg","source":"jamcams-camera-list.xml"},{"id":"00001.01412","latitude":51.5484,"longitude":-0.07533,"category_icon_url":"http:\/\/comroads.com\/images\/categories\/icon_44.png","category_hover_icon_url":"http:\/\/comroads.com\/images\/categories\/hover\/icon_44.png","title":"A10 Kingsland High St\/Winchester","url":"http:\/\/ar.comroads.com\/live-feed\/a10-kingsland-high-stwinchester-0000101412","country_code":"GB","thumbnail_url":"https:\/\/s3-eu-west-1.amazonaws.com\/jamcams.tfl.gov.uk\/00001.01412.jpg","source":"jamcams-camera-list.xml"},{"id":"00001.01413","latitude":51.5512,"longitude":-0.07501,"category_icon_url":"http:\/\/comroads.com\/images\/categories\/icon_44.png","category_hover_icon_url":"http:\/\/comroads.com\/images\/categories\/hover\/icon_44.png","title":"A10 Stoke Newington Rd\/Millers Terrace","url":"http:\/\/ar.comroads.com\/live-feed\/a10-stoke-newington-rdmillers-terrace-0000101413","country_code":"GB","thumbnail_url":"https:\/\/s3-eu-west-1.amazonaws.com\/jamcams.tfl.gov.uk\/00001.01413.jpg","source":"jamcams-camera-list.xml"},{"id":"00001.01414","latitude":51.5522,"longitude":-0.07486,"category_icon_url":"http:\/\/comroads.com\/images\/categories\/icon_44.png","category_hover_icon_url":"http:\/\/comroads.com\/images\/categories\/hover\/icon_44.png","title":"A10 Stoke Newington Rd\/Barretts Grove","url":"http:\/\/ar.comroads.com\/live-feed\/a10-stoke-newington-rdbarretts-grove-0000101414","country_code":"GB","thumbnail_url":"https:\/\/s3-eu-west-1.amazonaws.com\/jamcams.tfl.gov.uk\/00001.01414.jpg","source":"jamcams-camera-list.xml"},{"id":"00001.01416","latitude":51.5548,"longitude":-0.07466,"category_icon_url":"http:\/\/comroads.com\/images\/categories\/icon_44.png","category_hover_icon_url":"http:\/\/comroads.com\/images\/categories\/hover\/icon_44.png","title":"A10 South of Farleigh Rd","url":"http:\/\/ar.comroads.com\/live-feed\/a10-south-of-farleigh-rd-0000101416","country_code":"GB","thumbnail_url":"https:\/\/s3-eu-west-1.amazonaws.com\/jamcams.tfl.gov.uk\/00001.01416.jpg","source":"jamcams-camera-list.xml"},{"id":"00001.01417","latitude":51.5559,"longitude":-0.07467,"category_icon_url":"http:\/\/comroads.com\/images\/categories\/icon_44.png","category_hover_icon_url":"http:\/\/comroads.com\/images\/categories\/hover\/icon_44.png","title":"A10 North of Walford Rd","url":"http:\/\/ar.comroads.com\/live-feed\/a10-north-of-walford-rd-0000101417","country_code":"GB","thumbnail_url":"https:\/\/s3-eu-west-1.amazonaws.com\/jamcams.tfl.gov.uk\/00001.01417.jpg","source":"jamcams-camera-list.xml"},{"id":"00001.01418","latitude":51.5583,"longitude":-0.06936,"category_icon_url":"http:\/\/comroads.com\/images\/categories\/icon_44.png","category_hover_icon_url":"http:\/\/comroads.com\/images\/categories\/hover\/icon_44.png","title":"A10 North of Evering Rd","url":"http:\/\/ar.comroads.com\/live-feed\/a10-north-of-evering-rd-0000101418","country_code":"GB","thumbnail_url":"https:\/\/s3-eu-west-1.amazonaws.com\/jamcams.tfl.gov.uk\/00001.01418.jpg","source":"jamcams-camera-list.xml"},{"id":"00001.01419","latitude":51.5596,"longitude":-0.07424,"category_icon_url":"http:\/\/comroads.com\/images\/categories\/icon_44.png","category_hover_icon_url":"http:\/\/comroads.com\/images\/categories\/hover\/icon_44.png","title":"A10 North of Tyssen Road","url":"http:\/\/ar.comroads.com\/live-feed\/a10-north-of-tyssen-road-0000101419","country_code":"GB","thumbnail_url":"https:\/\/s3-eu-west-1.amazonaws.com\/jamcams.tfl.gov.uk\/00001.01419.jpg","source":"jamcams-camera-list.xml"},{"id":"00001.01420","latitude":51.5606,"longitude":-0.07056,"category_icon_url":"http:\/\/comroads.com\/images\/categories\/icon_44.png","category_hover_icon_url":"http:\/\/comroads.com\/images\/categories\/hover\/icon_44.png","title":"A10 North of Brooke Road","url":"http:\/\/ar.comroads.com\/live-feed\/a10-north-of-brooke-road-0000101420","country_code":"GB","thumbnail_url":"https:\/\/s3-eu-west-1.amazonaws.com\/jamcams.tfl.gov.uk\/00001.01420.jpg","source":"jamcams-camera-list.xml"},{"id":"00001.01421","latitude":51.5636,"longitude":-0.07325,"category_icon_url":"http:\/\/comroads.com\/images\/categories\/icon_44.png","category_hover_icon_url":"http:\/\/comroads.com\/images\/categories\/hover\/icon_44.png","title":"A10 North of Northwold Rd","url":"http:\/\/ar.comroads.com\/live-feed\/a10-north-of-northwold-rd-0000101421","country_code":"GB","thumbnail_url":"https:\/\/s3-eu-west-1.amazonaws.com\/jamcams.tfl.gov.uk\/00001.01421.jpg","source":"jamcams-camera-list.xml"},{"id":"00001.01422","latitude":51.5669,"longitude":-0.07286,"category_icon_url":"http:\/\/comroads.com\/images\/categories\/icon_44.png","category_hover_icon_url":"http:\/\/comroads.com\/images\/categories\/hover\/icon_44.png","title":"A10 Stamford Hill\/Lampard Grove","url":"http:\/\/ar.comroads.com\/live-feed\/a10-stamford-hilllampard-grove-0000101422","country_code":"GB","thumbnail_url":"https:\/\/s3-eu-west-1.amazonaws.com\/jamcams.tfl.gov.uk\/00001.01422.jpg","source":"jamcams-camera-list.xml"},{"id":"00001.01424","latitude":51.5831,"longitude":-0.07226,"category_icon_url":"http:\/\/comroads.com\/images\/categories\/icon_44.png","category_hover_icon_url":"http:\/\/comroads.com\/images\/categories\/hover\/icon_44.png","title":"Tottenham High Road \/ Seven Sisters Rd","url":"http:\/\/ar.comroads.com\/live-feed\/tottenham-high-road-seven-sisters-rd-0000101424","country_code":"GB","thumbnail_url":"https:\/\/s3-eu-west-1.amazonaws.com\/jamcams.tfl.gov.uk\/00001.01424.jpg","source":"jamcams-camera-list.xml"},{"id":"00001.01425","latitude":51.5843,"longitude":-0.06899,"category_icon_url":"http:\/\/comroads.com\/images\/categories\/icon_44.png","category_hover_icon_url":"http:\/\/comroads.com\/images\/categories\/hover\/icon_44.png","title":"A10 Broad Lane\/Talbot Rd","url":"http:\/\/ar.comroads.com\/live-feed\/a10-broad-lanetalbot-rd-0000101425","country_code":"GB","thumbnail_url":"https:\/\/s3-eu-west-1.amazonaws.com\/jamcams.tfl.gov.uk\/00001.01425.jpg","source":"jamcams-camera-list.xml"},{"id":"00001.01426","latitude":51.5919,"longitude":-0.07001,"category_icon_url":"http:\/\/comroads.com\/images\/categories\/icon_44.png","category_hover_icon_url":"http:\/\/comroads.com\/images\/categories\/hover\/icon_44.png","title":"A10 High Rd\/Forster Rd","url":"http:\/\/ar.comroads.com\/live-feed\/a10-high-rdforster-rd-0000101426","country_code":"GB","thumbnail_url":"https:\/\/s3-eu-west-1.amazonaws.com\/jamcams.tfl.gov.uk\/00001.01426.jpg","source":"jamcams-camera-list.xml"},{"id":"00001.01427","latitude":51.594,"longitude":-0.06943,"category_icon_url":"http:\/\/comroads.com\/images\/categories\/icon_44.png","category_hover_icon_url":"http:\/\/comroads.com\/images\/categories\/hover\/icon_44.png","title":"Bruce Grove","url":"http:\/\/ar.comroads.com\/live-feed\/bruce-grove-0000101427","country_code":"GB","thumbnail_url":"https:\/\/s3-eu-west-1.amazonaws.com\/jamcams.tfl.gov.uk\/00001.01427.jpg","source":"jamcams-camera-list.xml"},{"id":"00001.01428","latitude":51.6067,"longitude":-0.08556,"category_icon_url":"http:\/\/comroads.com\/images\/categories\/icon_44.png","category_hover_icon_url":"http:\/\/comroads.com\/images\/categories\/hover\/icon_44.png","title":"A10 Grt Cambridge Rd\/Devonshire H Ln","url":"http:\/\/ar.comroads.com\/live-feed\/a10-grt-cambridge-rddevonshire-h-ln-0000101428","country_code":"GB","thumbnail_url":"https:\/\/s3-eu-west-1.amazonaws.com\/jamcams.tfl.gov.uk\/00001.01428.jpg","source":"jamcams-camera-list.xml"},{"id":"00001.01429","latitude":51.6799,"longitude":-0.05135,"category_icon_url":"http:\/\/comroads.com\/images\/categories\/icon_44.png","category_hover_icon_url":"http:\/\/comroads.com\/images\/categories\/hover\/icon_44.png","title":"Grt Cambridge Rd\/Bullsmore Ln","url":"http:\/\/ar.comroads.com\/live-feed\/grt-cambridge-rdbullsmore-ln-0000101429","country_code":"GB","thumbnail_url":"https:\/\/s3-eu-west-1.amazonaws.com\/jamcams.tfl.gov.uk\/00001.01429.jpg","source":"jamcams-camera-list.xml"},{"id":"00001.01430","latitude":51.5732,"longitude":-0.07268,"category_icon_url":"http:\/\/comroads.com\/images\/categories\/icon_44.png","category_hover_icon_url":"http:\/\/comroads.com\/images\/categories\/hover\/icon_44.png","title":"Stamford Hill\/Amhurst Pk","url":"http:\/\/ar.comroads.com\/live-feed\/stamford-hillamhurst-pk-0000101430","country_code":"GB","thumbnail_url":"https:\/\/s3-eu-west-1.amazonaws.com\/jamcams.tfl.gov.uk\/00001.01430.jpg","source":"jamcams-camera-list.xml"},{"id":"00001.01432","latitude":51.557,"longitude":-0.05594,"category_icon_url":"http:\/\/comroads.com\/images\/categories\/icon_44.png","category_hover_icon_url":"http:\/\/comroads.com\/images\/categories\/hover\/icon_44.png","title":"Lr Clapton Rd\/Thislewaite Rd","url":"http:\/\/ar.comroads.com\/live-feed\/lr-clapton-rdthislewaite-rd-0000101432","country_code":"GB","thumbnail_url":"https:\/\/s3-eu-west-1.amazonaws.com\/jamcams.tfl.gov.uk\/00001.01432.jpg","source":"jamcams-camera-list.xml"},{"id":"00001.01433","latitude":51.5729,"longitude":-0.07074,"category_icon_url":"http:\/\/comroads.com\/images\/categories\/icon_44.png","category_hover_icon_url":"http:\/\/comroads.com\/images\/categories\/hover\/icon_44.png","title":"Clapton Common\/Lewstone Place","url":"http:\/\/ar.comroads.com\/live-feed\/clapton-commonlewstone-place-0000101433","country_code":"GB","thumbnail_url":"https:\/\/s3-eu-west-1.amazonaws.com\/jamcams.tfl.gov.uk\/00001.01433.jpg","source":"jamcams-camera-list.xml"},{"id":"00001.01436","latitude":51.6127,"longitude":-0.12115,"category_icon_url":"http:\/\/comroads.com\/images\/categories\/icon_44.png","category_hover_icon_url":"http:\/\/comroads.com\/images\/categories\/hover\/icon_44.png","title":"Bowes Rd\/Brownlow Rd","url":"http:\/\/ar.comroads.com\/live-feed\/bowes-rdbrownlow-rd-0000101436","country_code":"GB","thumbnail_url":"https:\/\/s3-eu-west-1.amazonaws.com\/jamcams.tfl.gov.uk\/00001.01436.jpg","source":"jamcams-camera-list.xml"},{"id":"00001.01437","latitude":51.617,"longitude":-0.0866,"category_icon_url":"http:\/\/comroads.com\/images\/categories\/icon_44.png","category_hover_icon_url":"http:\/\/comroads.com\/images\/categories\/hover\/icon_44.png","title":"Grt Cambridge Rd\/A406 NCR Rabout","url":"http:\/\/ar.comroads.com\/live-feed\/grt-cambridge-rda406-ncr-rabout-0000101437","country_code":"GB","thumbnail_url":"https:\/\/s3-eu-west-1.amazonaws.com\/jamcams.tfl.gov.uk\/00001.01437.jpg","source":"jamcams-camera-list.xml"},{"id":"00001.01438","latitude":51.5571,"longitude":-0.07466,"category_icon_url":"http:\/\/comroads.com\/images\/categories\/icon_44.png","category_hover_icon_url":"http:\/\/comroads.com\/images\/categories\/hover\/icon_44.png","title":"Stoke Newington Rd\/Evering Rd","url":"http:\/\/ar.comroads.com\/live-feed\/stoke-newington-rdevering-rd-0000101438","country_code":"GB","thumbnail_url":"https:\/\/s3-eu-west-1.amazonaws.com\/jamcams.tfl.gov.uk\/00001.01438.jpg","source":"jamcams-camera-list.xml"},{"id":"00001.01439","latitude":51.5252,"longitude":-0.07732,"category_icon_url":"http:\/\/comroads.com\/images\/categories\/icon_44.png","category_hover_icon_url":"http:\/\/comroads.com\/images\/categories\/hover\/icon_44.png","title":"Shoreditch High St\/Batemans Row","url":"http:\/\/ar.comroads.com\/live-feed\/shoreditch-high-stbatemans-row-0000101439","country_code":"GB","thumbnail_url":"https:\/\/s3-eu-west-1.amazonaws.com\/jamcams.tfl.gov.uk\/00001.01439.jpg","source":"jamcams-camera-list.xml"},{"id":"00001.01440","latitude":51.5952,"longitude":-0.071,"category_icon_url":"http:\/\/comroads.com\/images\/categories\/icon_44.png","category_hover_icon_url":"http:\/\/comroads.com\/images\/categories\/hover\/icon_44.png","title":"Bruce Grove\/Woodside Gardens","url":"http:\/\/ar.comroads.com\/live-feed\/bruce-grovewoodside-gardens-0000101440","country_code":"GB","thumbnail_url":"https:\/\/s3-eu-west-1.amazonaws.com\/jamcams.tfl.gov.uk\/00001.01440.jpg","source":"jamcams-camera-list.xml"},{"id":"00001.01441","latitude":51.5702,"longitude":-0.07297,"category_icon_url":"http:\/\/comroads.com\/images\/categories\/icon_44.png","category_hover_icon_url":"http:\/\/comroads.com\/images\/categories\/hover\/icon_44.png","title":"Stamford Hill\/Dunsmure Road","url":"http:\/\/ar.comroads.com\/live-feed\/stamford-hilldunsmure-road-0000101441","country_code":"GB","thumbnail_url":"https:\/\/s3-eu-west-1.amazonaws.com\/jamcams.tfl.gov.uk\/00001.01441.jpg","source":"jamcams-camera-list.xml"},{"id":"00001.01442","latitude":51.5743,"longitude":-0.07221,"category_icon_url":"http:\/\/comroads.com\/images\/categories\/icon_44.png","category_hover_icon_url":"http:\/\/comroads.com\/images\/categories\/hover\/icon_44.png","title":"Stamford Hill\/Egerton Rd","url":"http:\/\/ar.comroads.com\/live-feed\/stamford-hillegerton-rd-0000101442","country_code":"GB","thumbnail_url":"https:\/\/s3-eu-west-1.amazonaws.com\/jamcams.tfl.gov.uk\/00001.01442.jpg","source":"jamcams-camera-list.xml"},{"id":"00001.01445","latitude":51.6496,"longitude":-0.06039,"category_icon_url":"http:\/\/comroads.com\/images\/categories\/icon_44.png","category_hover_icon_url":"http:\/\/comroads.com\/images\/categories\/hover\/icon_44.png","title":"A10 Grt Cambridge Rd\/A110 S bury Rd","url":"http:\/\/ar.comroads.com\/live-feed\/a10-grt-cambridge-rda110-s-bury-rd-0000101445","country_code":"GB","thumbnail_url":"https:\/\/s3-eu-west-1.amazonaws.com\/jamcams.tfl.gov.uk\/00001.01445.jpg","source":"jamcams-camera-list.xml"},{"id":"00001.01462","latitude":51.6341,"longitude":-0.06968,"category_icon_url":"http:\/\/comroads.com\/images\/categories\/icon_44.png","category_hover_icon_url":"http:\/\/comroads.com\/images\/categories\/hover\/icon_44.png","title":"Grt Cambridge Rd\/Bury St","url":"http:\/\/ar.comroads.com\/live-feed\/grt-cambridge-rdbury-st-0000101462","country_code":"GB","thumbnail_url":"https:\/\/s3-eu-west-1.amazonaws.com\/jamcams.tfl.gov.uk\/00001.01462.jpg","source":"jamcams-camera-list.xml"},{"id":"00001.01467","latitude":51.6592,"longitude":-0.05914,"category_icon_url":"http:\/\/comroads.com\/images\/categories\/icon_44.png","category_hover_icon_url":"http:\/\/comroads.com\/images\/categories\/hover\/icon_44.png","title":"A10\/Carterhatch Lane","url":"http:\/\/ar.comroads.com\/live-feed\/a10carterhatch-lane-0000101467","country_code":"GB","thumbnail_url":"https:\/\/s3-eu-west-1.amazonaws.com\/jamcams.tfl.gov.uk\/00001.01467.jpg","source":"jamcams-camera-list.xml"},{"id":"00001.01502","latitude":51.5466,"longitude":-0.055,"category_icon_url":"http:\/\/comroads.com\/images\/categories\/icon_44.png","category_hover_icon_url":"http:\/\/comroads.com\/images\/categories\/hover\/icon_44.png","title":"Mare St\/Graham Rd","url":"http:\/\/ar.comroads.com\/live-feed\/mare-stgraham-rd-0000101502","country_code":"GB","thumbnail_url":"https:\/\/s3-eu-west-1.amazonaws.com\/jamcams.tfl.gov.uk\/00001.01502.jpg","source":"jamcams-camera-list.xml"},{"id":"00001.01503","latitude":51.5462,"longitude":-0.06941,"category_icon_url":"http:\/\/comroads.com\/images\/categories\/icon_44.png","category_hover_icon_url":"http:\/\/comroads.com\/images\/categories\/hover\/icon_44.png","title":"Graham Rd\/Dalston Lane","url":"http:\/\/ar.comroads.com\/live-feed\/graham-rddalston-lane-0000101503","country_code":"GB","thumbnail_url":"https:\/\/s3-eu-west-1.amazonaws.com\/jamcams.tfl.gov.uk\/00001.01503.jpg","source":"jamcams-camera-list.xml"},{"id":"00001.01509","latitude":51.5458,"longitude":-0.07567,"category_icon_url":"http:\/\/comroads.com\/images\/categories\/icon_44.png","category_hover_icon_url":"http:\/\/comroads.com\/images\/categories\/hover\/icon_44.png","title":"Kland Rd\/Balls Pond Rd","url":"http:\/\/ar.comroads.com\/live-feed\/kland-rdballs-pond-rd-0000101509","country_code":"GB","thumbnail_url":"https:\/\/s3-eu-west-1.amazonaws.com\/jamcams.tfl.gov.uk\/00001.01509.jpg","source":"jamcams-camera-list.xml"},{"id":"00001.01510","latitude":51.5465,"longitude":-0.08591,"category_icon_url":"http:\/\/comroads.com\/images\/categories\/icon_44.png","category_hover_icon_url":"http:\/\/comroads.com\/images\/categories\/hover\/icon_44.png","title":"Balls Pond Rd\/Henshall St","url":"http:\/\/ar.comroads.com\/live-feed\/balls-pond-rdhenshall-st-0000101510","country_code":"GB","thumbnail_url":"https:\/\/s3-eu-west-1.amazonaws.com\/jamcams.tfl.gov.uk\/00001.01510.jpg","source":"jamcams-camera-list.xml"},{"id":"00001.01551","latitude":51.5246,"longitude":-0.111,"category_icon_url":"http:\/\/comroads.com\/images\/categories\/icon_44.png","category_hover_icon_url":"http:\/\/comroads.com\/images\/categories\/hover\/icon_44.png","title":"Rosebery Av\/Mount Pleasant","url":"http:\/\/ar.comroads.com\/live-feed\/rosebery-avmount-pleasant-0000101551","country_code":"GB","thumbnail_url":"https:\/\/s3-eu-west-1.amazonaws.com\/jamcams.tfl.gov.uk\/00001.01551.jpg","source":"jamcams-camera-list.xml"},{"id":"00001.01552","latitude":51.5257,"longitude":-0.11045,"category_icon_url":"http:\/\/comroads.com\/images\/categories\/icon_44.png","category_hover_icon_url":"http:\/\/comroads.com\/images\/categories\/hover\/icon_44.png","title":"Rosebury Ave\/Farringdon Rd","url":"http:\/\/ar.comroads.com\/live-feed\/rosebury-avefarringdon-rd-0000101552","country_code":"GB","thumbnail_url":"https:\/\/s3-eu-west-1.amazonaws.com\/jamcams.tfl.gov.uk\/00001.01552.jpg","source":"jamcams-camera-list.xml"},{"id":"00001.01601","latitude":51.5526,"longitude":-0.05272,"category_icon_url":"http:\/\/comroads.com\/images\/categories\/icon_44.png","category_hover_icon_url":"http:\/\/comroads.com\/images\/categories\/hover\/icon_44.png","title":"Lwr Clapton\/Powerscroft","url":"http:\/\/ar.comroads.com\/live-feed\/lwr-claptonpowerscroft-0000101601","country_code":"GB","thumbnail_url":"https:\/\/s3-eu-west-1.amazonaws.com\/jamcams.tfl.gov.uk\/00001.01601.jpg","source":"jamcams-camera-list.xml"},{"id":"00001.01603","latitude":51.5619,"longitude":-0.05748,"category_icon_url":"http:\/\/comroads.com\/images\/categories\/icon_44.png","category_hover_icon_url":"http:\/\/comroads.com\/images\/categories\/hover\/icon_44.png","title":"A107 Upper Clapton Rd\/Southwold Rd","url":"http:\/\/ar.comroads.com\/live-feed\/a107-upper-clapton-rdsouthwold-rd-0000101603","country_code":"GB","thumbnail_url":"https:\/\/s3-eu-west-1.amazonaws.com\/jamcams.tfl.gov.uk\/00001.01603.jpg","source":"jamcams-camera-list.xml"},{"id":"00001.01604","latitude":51.564,"longitude":-0.05929,"category_icon_url":"http:\/\/comroads.com\/images\/categories\/icon_44.png","category_hover_icon_url":"http:\/\/comroads.com\/images\/categories\/hover\/icon_44.png","title":"Upper Clapton Rd\/Rossington St","url":"http:\/\/ar.comroads.com\/live-feed\/upper-clapton-rdrossington-st-0000101604","country_code":"GB","thumbnail_url":"https:\/\/s3-eu-west-1.amazonaws.com\/jamcams.tfl.gov.uk\/00001.01604.jpg","source":"jamcams-camera-list.xml"},{"id":"00001.01606","latitude":51.5482,"longitude":-0.04448,"category_icon_url":"http:\/\/comroads.com\/images\/categories\/icon_44.png","category_hover_icon_url":"http:\/\/comroads.com\/images\/categories\/hover\/icon_44.png","title":"Homerton High St\/Digby Road","url":"http:\/\/ar.comroads.com\/live-feed\/homerton-high-stdigby-road-0000101606","country_code":"GB","thumbnail_url":"https:\/\/s3-eu-west-1.amazonaws.com\/jamcams.tfl.gov.uk\/00001.01606.jpg","source":"jamcams-camera-list.xml"},{"id":"00001.01607","latitude":51.5458,"longitude":-0.03353,"category_icon_url":"http:\/\/comroads.com\/images\/categories\/icon_44.png","category_hover_icon_url":"http:\/\/comroads.com\/images\/categories\/hover\/icon_44.png","title":"A12 East Cross Route\/Benn St","url":"http:\/\/ar.comroads.com\/live-feed\/a12-east-cross-routebenn-st-0000101607","country_code":"GB","thumbnail_url":"https:\/\/s3-eu-west-1.amazonaws.com\/jamcams.tfl.gov.uk\/00001.01607.jpg","source":"jamcams-camera-list.xml"},{"id":"00001.01609","latitude":51.569,"longitude":-0.06198,"category_icon_url":"http:\/\/comroads.com\/images\/categories\/icon_44.png","category_hover_icon_url":"http:\/\/comroads.com\/images\/categories\/hover\/icon_44.png","title":"Clapton Common\/Forburg Rd","url":"http:\/\/ar.comroads.com\/live-feed\/clapton-commonforburg-rd-0000101609","country_code":"GB","thumbnail_url":"https:\/\/s3-eu-west-1.amazonaws.com\/jamcams.tfl.gov.uk\/00001.01609.jpg","source":"jamcams-camera-list.xml"},{"id":"00001.01611","latitude":51.5452,"longitude":-0.03557,"category_icon_url":"http:\/\/comroads.com\/images\/categories\/icon_44.png","category_hover_icon_url":"http:\/\/comroads.com\/images\/categories\/hover\/icon_44.png","title":"Kenworthy Rd\/Brookfield Rd\/Wick Rd","url":"http:\/\/ar.comroads.com\/live-feed\/kenworthy-rdbrookfield-rdwick-rd-0000101611","country_code":"GB","thumbnail_url":"https:\/\/s3-eu-west-1.amazonaws.com\/jamcams.tfl.gov.uk\/00001.01611.jpg","source":"jamcams-camera-list.xml"},{"id":"00001.01612","latitude":51.5516,"longitude":-0.0208,"category_icon_url":"http:\/\/comroads.com\/images\/categories\/icon_44.png","category_hover_icon_url":"http:\/\/comroads.com\/images\/categories\/hover\/icon_44.png","title":"Eastway\/Lee Interchange","url":"http:\/\/ar.comroads.com\/live-feed\/eastwaylee-interchange-0000101612","country_code":"GB","thumbnail_url":"https:\/\/s3-eu-west-1.amazonaws.com\/jamcams.tfl.gov.uk\/00001.01612.jpg","source":"jamcams-camera-list.xml"},{"id":"00001.01615","latitude":51.5547,"longitude":-0.01696,"category_icon_url":"http:\/\/comroads.com\/images\/categories\/icon_44.png","category_hover_icon_url":"http:\/\/comroads.com\/images\/categories\/hover\/icon_44.png","title":"Ruckholt Rd\/Sherrin Rd","url":"http:\/\/ar.comroads.com\/live-feed\/ruckholt-rdsherrin-rd-0000101615","country_code":"GB","thumbnail_url":"https:\/\/s3-eu-west-1.amazonaws.com\/jamcams.tfl.gov.uk\/00001.01615.jpg","source":"jamcams-camera-list.xml"},{"id":"00001.01685","latitude":51.5326,"longitude":-0.05702,"category_icon_url":"http:\/\/comroads.com\/images\/categories\/icon_44.png","category_hover_icon_url":"http:\/\/comroads.com\/images\/categories\/hover\/icon_44.png","title":"Hackney Rd\/Camb Heath Rd","url":"http:\/\/ar.comroads.com\/live-feed\/hackney-rdcamb-heath-rd-0000101685","country_code":"GB","thumbnail_url":"https:\/\/s3-eu-west-1.amazonaws.com\/jamcams.tfl.gov.uk\/00001.01685.jpg","source":"jamcams-camera-list.xml"},{"id":"00001.02001","latitude":51.5112,"longitude":-0.07301,"category_icon_url":"http:\/\/comroads.com\/images\/categories\/icon_44.png","category_hover_icon_url":"http:\/\/comroads.com\/images\/categories\/hover\/icon_44.png","title":"Goodmans Yard\/ Mansell Street","url":"http:\/\/ar.comroads.com\/live-feed\/goodmans-yard-mansell-street-0000102001","country_code":"GB","thumbnail_url":"https:\/\/s3-eu-west-1.amazonaws.com\/jamcams.tfl.gov.uk\/00001.02001.jpg","source":"jamcams-camera-list.xml"},{"id":"00001.02002","latitude":51.5095,"longitude":-0.08671,"category_icon_url":"http:\/\/comroads.com\/images\/categories\/icon_44.png","category_hover_icon_url":"http:\/\/comroads.com\/images\/categories\/hover\/icon_44.png","title":"Lower Thames St\/London Bridge","url":"http:\/\/ar.comroads.com\/live-feed\/lower-thames-stlondon-bridge-0000102002","country_code":"GB","thumbnail_url":"https:\/\/s3-eu-west-1.amazonaws.com\/jamcams.tfl.gov.uk\/00001.02002.jpg","source":"jamcams-camera-list.xml"},{"id":"00001.02025","latitude":51.512,"longitude":-0.06927,"category_icon_url":"http:\/\/comroads.com\/images\/categories\/icon_44.png","category_hover_icon_url":"http:\/\/comroads.com\/images\/categories\/hover\/icon_44.png","title":"Leman St \/ Prescot St","url":"http:\/\/ar.comroads.com\/live-feed\/leman-st-prescot-st-0000102025","country_code":"GB","thumbnail_url":"https:\/\/s3-eu-west-1.amazonaws.com\/jamcams.tfl.gov.uk\/00001.02025.jpg","source":"jamcams-camera-list.xml"},{"id":"00001.02050","latitude":51.5162,"longitude":-0.0727,"category_icon_url":"http:\/\/comroads.com\/images\/categories\/icon_44.png","category_hover_icon_url":"http:\/\/comroads.com\/images\/categories\/hover\/icon_44.png","title":"Commercial St N of Pomell Way","url":"http:\/\/ar.comroads.com\/live-feed\/commercial-st-n-of-pomell-way-0000102050","country_code":"GB","thumbnail_url":"https:\/\/s3-eu-west-1.amazonaws.com\/jamcams.tfl.gov.uk\/00001.02050.jpg","source":"jamcams-camera-list.xml"},{"id":"00001.02075","latitude":51.5192,"longitude":-0.07464,"category_icon_url":"http:\/\/comroads.com\/images\/categories\/icon_44.png","category_hover_icon_url":"http:\/\/comroads.com\/images\/categories\/hover\/icon_44.png","title":"Commercial St\/Brushfield","url":"http:\/\/ar.comroads.com\/live-feed\/commercial-stbrushfield-0000102075","country_code":"GB","thumbnail_url":"https:\/\/s3-eu-west-1.amazonaws.com\/jamcams.tfl.gov.uk\/00001.02075.jpg","source":"jamcams-camera-list.xml"},{"id":"00001.02080","latitude":51.5259,"longitude":-0.06906,"category_icon_url":"http:\/\/comroads.com\/images\/categories\/icon_44.png","category_hover_icon_url":"http:\/\/comroads.com\/images\/categories\/hover\/icon_44.png","title":"Bethnal Gr Rd\/Satchwell Rd","url":"http:\/\/ar.comroads.com\/live-feed\/bethnal-gr-rdsatchwell-rd-0000102080","country_code":"GB","thumbnail_url":"https:\/\/s3-eu-west-1.amazonaws.com\/jamcams.tfl.gov.uk\/00001.02080.jpg","source":"jamcams-camera-list.xml"},{"id":"00001.02100","latitude":51.5144,"longitude":-0.07411,"category_icon_url":"http:\/\/comroads.com\/images\/categories\/icon_44.png","category_hover_icon_url":"http:\/\/comroads.com\/images\/categories\/hover\/icon_44.png","title":"Whitechapel High St\/Mansell St","url":"http:\/\/ar.comroads.com\/live-feed\/whitechapel-high-stmansell-st-0000102100","country_code":"GB","thumbnail_url":"https:\/\/s3-eu-west-1.amazonaws.com\/jamcams.tfl.gov.uk\/00001.02100.jpg","source":"jamcams-camera-list.xml"},{"id":"00001.02101","latitude":51.5163,"longitude":-0.06894,"category_icon_url":"http:\/\/comroads.com\/images\/categories\/icon_44.png","category_hover_icon_url":"http:\/\/comroads.com\/images\/categories\/hover\/icon_44.png","title":"Whitechapel Rd\/White Church Ln","url":"http:\/\/ar.comroads.com\/live-feed\/whitechapel-rdwhite-church-ln-0000102101","country_code":"GB","thumbnail_url":"https:\/\/s3-eu-west-1.amazonaws.com\/jamcams.tfl.gov.uk\/00001.02101.jpg","source":"jamcams-camera-list.xml"},{"id":"00001.02102","latitude":51.5175,"longitude":-0.06591,"category_icon_url":"http:\/\/comroads.com\/images\/categories\/icon_44.png","category_hover_icon_url":"http:\/\/comroads.com\/images\/categories\/hover\/icon_44.png","title":"Whitechapel Rd\/Fieldgate St","url":"http:\/\/ar.comroads.com\/live-feed\/whitechapel-rdfieldgate-st-0000102102","country_code":"GB","thumbnail_url":"https:\/\/s3-eu-west-1.amazonaws.com\/jamcams.tfl.gov.uk\/00001.02102.jpg","source":"jamcams-camera-list.xml"},{"id":"00001.02103","latitude":51.5187,"longitude":-0.0611,"category_icon_url":"http:\/\/comroads.com\/images\/categories\/icon_44.png","category_hover_icon_url":"http:\/\/comroads.com\/images\/categories\/hover\/icon_44.png","title":"Whitechapel Rd\/Court St LBTH","url":"http:\/\/ar.comroads.com\/live-feed\/whitechapel-rdcourt-st-lbth-0000102103","country_code":"GB","thumbnail_url":"https:\/\/s3-eu-west-1.amazonaws.com\/jamcams.tfl.gov.uk\/00001.02103.jpg","source":"jamcams-camera-list.xml"},{"id":"00001.02104","latitude":51.5205,"longitude":-0.05217,"category_icon_url":"http:\/\/comroads.com\/images\/categories\/icon_44.png","category_hover_icon_url":"http:\/\/comroads.com\/images\/categories\/hover\/icon_44.png","title":"Mile End Rd\/Cleveland Way","url":"http:\/\/ar.comroads.com\/live-feed\/mile-end-rdcleveland-way-0000102104","country_code":"GB","thumbnail_url":"https:\/\/s3-eu-west-1.amazonaws.com\/jamcams.tfl.gov.uk\/00001.02104.jpg","source":"jamcams-camera-list.xml"},{"id":"00001.02105","latitude":51.5212,"longitude":-0.04894,"category_icon_url":"http:\/\/comroads.com\/images\/categories\/icon_44.png","category_hover_icon_url":"http:\/\/comroads.com\/images\/categories\/hover\/icon_44.png","title":"Mile End Rd\/Cephas Ave","url":"http:\/\/ar.comroads.com\/live-feed\/mile-end-rdcephas-ave-0000102105","country_code":"GB","thumbnail_url":"https:\/\/s3-eu-west-1.amazonaws.com\/jamcams.tfl.gov.uk\/00001.02105.jpg","source":"jamcams-camera-list.xml"},{"id":"00001.02106","latitude":51.5229,"longitude":-0.04004,"category_icon_url":"http:\/\/comroads.com\/images\/categories\/icon_44.png","category_hover_icon_url":"http:\/\/comroads.com\/images\/categories\/hover\/icon_44.png","title":"Mile End Rd\/Harford St","url":"http:\/\/ar.comroads.com\/live-feed\/mile-end-rdharford-st-0000102106","country_code":"GB","thumbnail_url":"https:\/\/s3-eu-west-1.amazonaws.com\/jamcams.tfl.gov.uk\/00001.02106.jpg","source":"jamcams-camera-list.xml"},{"id":"00001.02109","latitude":51.5199,"longitude":-0.05565,"category_icon_url":"http:\/\/comroads.com\/images\/categories\/icon_44.png","category_hover_icon_url":"http:\/\/comroads.com\/images\/categories\/hover\/icon_44.png","title":"Mile End Rd\/Cambridge Heath Rd","url":"http:\/\/ar.comroads.com\/live-feed\/mile-end-rdcambridge-heath-rd-0000102109","country_code":"GB","thumbnail_url":"https:\/\/s3-eu-west-1.amazonaws.com\/jamcams.tfl.gov.uk\/00001.02109.jpg","source":"jamcams-camera-list.xml"},{"id":"00001.02110","latitude":51.5271,"longitude":-0.0255,"category_icon_url":"http:\/\/comroads.com\/images\/categories\/icon_44.png","category_hover_icon_url":"http:\/\/comroads.com\/images\/categories\/hover\/icon_44.png","title":"Bow Rd\/Alfred St","url":"http:\/\/ar.comroads.com\/live-feed\/bow-rdalfred-st-0000102110","country_code":"GB","thumbnail_url":"https:\/\/s3-eu-west-1.amazonaws.com\/jamcams.tfl.gov.uk\/00001.02110.jpg","source":"jamcams-camera-list.xml"},{"id":"00001.02115","latitude":51.5218,"longitude":-0.04605,"category_icon_url":"http:\/\/comroads.com\/images\/categories\/icon_44.png","category_hover_icon_url":"http:\/\/comroads.com\/images\/categories\/hover\/icon_44.png","title":"Mile End Rd\/Globe Rd","url":"http:\/\/ar.comroads.com\/live-feed\/mile-end-rdglobe-rd-0000102115","country_code":"GB","thumbnail_url":"https:\/\/s3-eu-west-1.amazonaws.com\/jamcams.tfl.gov.uk\/00001.02115.jpg","source":"jamcams-camera-list.xml"},{"id":"00001.02145","latitude":51.535,"longitude":-0.0056,"category_icon_url":"http:\/\/comroads.com\/images\/categories\/icon_44.png","category_hover_icon_url":"http:\/\/comroads.com\/images\/categories\/hover\/icon_44.png","title":"High Street\/Rick Roberts Way","url":"http:\/\/ar.comroads.com\/live-feed\/high-streetrick-roberts-way-0000102145","country_code":"GB","thumbnail_url":"https:\/\/s3-eu-west-1.amazonaws.com\/jamcams.tfl.gov.uk\/00001.02145.jpg","source":"jamcams-camera-list.xml"},{"id":"00001.02146","latitude":51.5443,"longitude":0.00026,"category_icon_url":"http:\/\/comroads.com\/images\/categories\/icon_44.png","category_hover_icon_url":"http:\/\/comroads.com\/images\/categories\/hover\/icon_44.png","title":"Great Eastern Rd\/Angel Lane Bridge","url":"http:\/\/ar.comroads.com\/live-feed\/great-eastern-rdangel-lane-bridge-0000102146","country_code":"GB","thumbnail_url":"https:\/\/s3-eu-west-1.amazonaws.com\/jamcams.tfl.gov.uk\/00001.02146.jpg","source":"jamcams-camera-list.xml"},{"id":"00001.02147","latitude":51.551,"longitude":-0.00402,"category_icon_url":"http:\/\/comroads.com\/images\/categories\/icon_44.png","category_hover_icon_url":"http:\/\/comroads.com\/images\/categories\/hover\/icon_44.png","title":"Major Rd\/Crownfield Rd","url":"http:\/\/ar.comroads.com\/live-feed\/major-rdcrownfield-rd-0000102147","country_code":"GB","thumbnail_url":"https:\/\/s3-eu-west-1.amazonaws.com\/jamcams.tfl.gov.uk\/00001.02147.jpg","source":"jamcams-camera-list.xml"},{"id":"00001.02150","latitude":51.5393,"longitude":-0.00055,"category_icon_url":"http:\/\/comroads.com\/images\/categories\/icon_44.png","category_hover_icon_url":"http:\/\/comroads.com\/images\/categories\/hover\/icon_44.png","title":"Stratford Broadway\/Gt Eastern Rd","url":"http:\/\/ar.comroads.com\/live-feed\/stratford-broadwaygt-eastern-rd-0000102150","country_code":"GB","thumbnail_url":"https:\/\/s3-eu-west-1.amazonaws.com\/jamcams.tfl.gov.uk\/00001.02150.jpg","source":"jamcams-camera-list.xml"},{"id":"00001.02151","latitude":51.5421,"longitude":0.00524,"category_icon_url":"http:\/\/comroads.com\/images\/categories\/icon_44.png","category_hover_icon_url":"http:\/\/comroads.com\/images\/categories\/hover\/icon_44.png","title":"Romford Rd \/ Tennyson Rd","url":"http:\/\/ar.comroads.com\/live-feed\/romford-rd-tennyson-rd-0000102151","country_code":"GB","thumbnail_url":"https:\/\/s3-eu-west-1.amazonaws.com\/jamcams.tfl.gov.uk\/00001.02151.jpg","source":"jamcams-camera-list.xml"},{"id":"00001.02152","latitude":51.5427,"longitude":0.00926,"category_icon_url":"http:\/\/comroads.com\/images\/categories\/icon_44.png","category_hover_icon_url":"http:\/\/comroads.com\/images\/categories\/hover\/icon_44.png","title":"Romford Rd \/ Vicarage Lane","url":"http:\/\/ar.comroads.com\/live-feed\/romford-rd-vicarage-lane-0000102152","country_code":"GB","thumbnail_url":"https:\/\/s3-eu-west-1.amazonaws.com\/jamcams.tfl.gov.uk\/00001.02152.jpg","source":"jamcams-camera-list.xml"},{"id":"00001.02154","latitude":51.5464,"longitude":0.0238,"category_icon_url":"http:\/\/comroads.com\/images\/categories\/icon_44.png","category_hover_icon_url":"http:\/\/comroads.com\/images\/categories\/hover\/icon_44.png","title":"Romford Rd \/ Sprowston Rd","url":"http:\/\/ar.comroads.com\/live-feed\/romford-rd-sprowston-rd-0000102154","country_code":"GB","thumbnail_url":"https:\/\/s3-eu-west-1.amazonaws.com\/jamcams.tfl.gov.uk\/00001.02154.jpg","source":"jamcams-camera-list.xml"},{"id":"00001.02156","latitude":51.547,"longitude":0.0318,"category_icon_url":"http:\/\/comroads.com\/images\/categories\/icon_44.png","category_hover_icon_url":"http:\/\/comroads.com\/images\/categories\/hover\/icon_44.png","title":"Romford Rd \/ Green St","url":"http:\/\/ar.comroads.com\/live-feed\/romford-rd-green-st-0000102156","country_code":"GB","thumbnail_url":"https:\/\/s3-eu-west-1.amazonaws.com\/jamcams.tfl.gov.uk\/00001.02156.jpg","source":"jamcams-camera-list.xml"},{"id":"00001.02158","latitude":51.5497,"longitude":0.04485,"category_icon_url":"http:\/\/comroads.com\/images\/categories\/icon_44.png","category_hover_icon_url":"http:\/\/comroads.com\/images\/categories\/hover\/icon_44.png","title":"Romford Rd \/ Carlton Rd","url":"http:\/\/ar.comroads.com\/live-feed\/romford-rd-carlton-rd-0000102158","country_code":"GB","thumbnail_url":"https:\/\/s3-eu-west-1.amazonaws.com\/jamcams.tfl.gov.uk\/00001.02158.jpg","source":"jamcams-camera-list.xml"},{"id":"00001.02160","latitude":51.5528,"longitude":0.05376,"category_icon_url":"http:\/\/comroads.com\/images\/categories\/icon_44.png","category_hover_icon_url":"http:\/\/comroads.com\/images\/categories\/hover\/icon_44.png","title":"Romford Rd\/ Rabbits Rd","url":"http:\/\/ar.comroads.com\/live-feed\/romford-rd-rabbits-rd-0000102160","country_code":"GB","thumbnail_url":"https:\/\/s3-eu-west-1.amazonaws.com\/jamcams.tfl.gov.uk\/00001.02160.jpg","source":"jamcams-camera-list.xml"},{"id":"00001.02200","latitude":51.5246,"longitude":-0.03482,"category_icon_url":"http:\/\/comroads.com\/images\/categories\/icon_44.png","category_hover_icon_url":"http:\/\/comroads.com\/images\/categories\/hover\/icon_44.png","title":"Burdett Rd\/Mile End Rd","url":"http:\/\/ar.comroads.com\/live-feed\/burdett-rdmile-end-rd-0000102200","country_code":"GB","thumbnail_url":"https:\/\/s3-eu-west-1.amazonaws.com\/jamcams.tfl.gov.uk\/00001.02200.jpg","source":"jamcams-camera-list.xml"},{"id":"00001.02201","latitude":51.523,"longitude":-0.03434,"category_icon_url":"http:\/\/comroads.com\/images\/categories\/icon_44.png","category_hover_icon_url":"http:\/\/comroads.com\/images\/categories\/hover\/icon_44.png","title":"Burdett Rd\/Hamlets Way","url":"http:\/\/ar.comroads.com\/live-feed\/burdett-rdhamlets-way-0000102201","country_code":"GB","thumbnail_url":"https:\/\/s3-eu-west-1.amazonaws.com\/jamcams.tfl.gov.uk\/00001.02201.jpg","source":"jamcams-camera-list.xml"},{"id":"00001.02202","latitude":51.5208,"longitude":-0.03276,"category_icon_url":"http:\/\/comroads.com\/images\/categories\/icon_44.png","category_hover_icon_url":"http:\/\/comroads.com\/images\/categories\/hover\/icon_44.png","title":"Burdett Rd\/Eric St","url":"http:\/\/ar.comroads.com\/live-feed\/burdett-rderic-st-0000102202","country_code":"GB","thumbnail_url":"https:\/\/s3-eu-west-1.amazonaws.com\/jamcams.tfl.gov.uk\/00001.02202.jpg","source":"jamcams-camera-list.xml"},{"id":"00001.02204","latitude":51.5141,"longitude":-0.02826,"category_icon_url":"http:\/\/comroads.com\/images\/categories\/icon_44.png","category_hover_icon_url":"http:\/\/comroads.com\/images\/categories\/hover\/icon_44.png","title":"Burdett Rd\/Pixley St","url":"http:\/\/ar.comroads.com\/live-feed\/burdett-rdpixley-st-0000102204","country_code":"GB","thumbnail_url":"https:\/\/s3-eu-west-1.amazonaws.com\/jamcams.tfl.gov.uk\/00001.02204.jpg","source":"jamcams-camera-list.xml"},{"id":"00001.02205","latitude":51.5135,"longitude":-0.02767,"category_icon_url":"http:\/\/comroads.com\/images\/categories\/icon_44.png","category_hover_icon_url":"http:\/\/comroads.com\/images\/categories\/hover\/icon_44.png","title":"Burdett Rd\/Dod St","url":"http:\/\/ar.comroads.com\/live-feed\/burdett-rddod-st-0000102205","country_code":"GB","thumbnail_url":"https:\/\/s3-eu-west-1.amazonaws.com\/jamcams.tfl.gov.uk\/00001.02205.jpg","source":"jamcams-camera-list.xml"},{"id":"00001.02206","latitude":51.5181,"longitude":-0.03008,"category_icon_url":"http:\/\/comroads.com\/images\/categories\/icon_44.png","category_hover_icon_url":"http:\/\/comroads.com\/images\/categories\/hover\/icon_44.png","title":"Burdett Rd\/Ackroyd Drive","url":"http:\/\/ar.comroads.com\/live-feed\/burdett-rdackroyd-drive-0000102206","country_code":"GB","thumbnail_url":"https:\/\/s3-eu-west-1.amazonaws.com\/jamcams.tfl.gov.uk\/00001.02206.jpg","source":"jamcams-camera-list.xml"},{"id":"00001.02252","latitude":51.5149,"longitude":-0.06808,"category_icon_url":"http:\/\/comroads.com\/images\/categories\/icon_44.png","category_hover_icon_url":"http:\/\/comroads.com\/images\/categories\/hover\/icon_44.png","title":"Commercial Rd\/Gowers Walk","url":"http:\/\/ar.comroads.com\/live-feed\/commercial-rdgowers-walk-0000102252","country_code":"GB","thumbnail_url":"https:\/\/s3-eu-west-1.amazonaws.com\/jamcams.tfl.gov.uk\/00001.02252.jpg","source":"jamcams-camera-list.xml"},{"id":"00001.02253","latitude":51.5148,"longitude":-0.06229,"category_icon_url":"http:\/\/comroads.com\/images\/categories\/icon_44.png","category_hover_icon_url":"http:\/\/comroads.com\/images\/categories\/hover\/icon_44.png","title":"Commercial Rd\/New Rd","url":"http:\/\/ar.comroads.com\/live-feed\/commercial-rdnew-rd-0000102253","country_code":"GB","thumbnail_url":"https:\/\/s3-eu-west-1.amazonaws.com\/jamcams.tfl.gov.uk\/00001.02253.jpg","source":"jamcams-camera-list.xml"},{"id":"00001.02254","latitude":51.5147,"longitude":-0.06163,"category_icon_url":"http:\/\/comroads.com\/images\/categories\/icon_44.png","category_hover_icon_url":"http:\/\/comroads.com\/images\/categories\/hover\/icon_44.png","title":"Commercial Rd\/Cannon St Rd","url":"http:\/\/ar.comroads.com\/live-feed\/commercial-rdcannon-st-rd-0000102254","country_code":"GB","thumbnail_url":"https:\/\/s3-eu-west-1.amazonaws.com\/jamcams.tfl.gov.uk\/00001.02254.jpg","source":"jamcams-camera-list.xml"},{"id":"00001.02255","latitude":51.5143,"longitude":-0.05451,"category_icon_url":"http:\/\/comroads.com\/images\/categories\/icon_44.png","category_hover_icon_url":"http:\/\/comroads.com\/images\/categories\/hover\/icon_44.png","title":"Commercial Rd\/Dean Cross St","url":"http:\/\/ar.comroads.com\/live-feed\/commercial-rddean-cross-st-0000102255","country_code":"GB","thumbnail_url":"https:\/\/s3-eu-west-1.amazonaws.com\/jamcams.tfl.gov.uk\/00001.02255.jpg","source":"jamcams-camera-list.xml"},{"id":"00001.02256","latitude":51.514,"longitude":-0.05251,"category_icon_url":"http:\/\/comroads.com\/images\/categories\/icon_44.png","category_hover_icon_url":"http:\/\/comroads.com\/images\/categories\/hover\/icon_44.png","title":"Commercial Rd\/Jubilee St","url":"http:\/\/ar.comroads.com\/live-feed\/commercial-rdjubilee-st-0000102256","country_code":"GB","thumbnail_url":"https:\/\/s3-eu-west-1.amazonaws.com\/jamcams.tfl.gov.uk\/00001.02256.jpg","source":"jamcams-camera-list.xml"},{"id":"00001.02257","latitude":51.513,"longitude":-0.04164,"category_icon_url":"http:\/\/comroads.com\/images\/categories\/icon_44.png","category_hover_icon_url":"http:\/\/comroads.com\/images\/categories\/hover\/icon_44.png","title":"Commercial Rd\/Belgrave St","url":"http:\/\/ar.comroads.com\/live-feed\/commercial-rdbelgrave-st-0000102257","country_code":"GB","thumbnail_url":"https:\/\/s3-eu-west-1.amazonaws.com\/jamcams.tfl.gov.uk\/00001.02257.jpg","source":"jamcams-camera-list.xml"},{"id":"00001.02258","latitude":51.5124,"longitude":-0.032,"category_icon_url":"http:\/\/comroads.com\/images\/categories\/icon_44.png","category_hover_icon_url":"http:\/\/comroads.com\/images\/categories\/hover\/icon_44.png","title":"A13 Commercial Road\/Salmon Lane","url":"http:\/\/ar.comroads.com\/live-feed\/a13-commercial-roadsalmon-lane-0000102258","country_code":"GB","thumbnail_url":"https:\/\/s3-eu-west-1.amazonaws.com\/jamcams.tfl.gov.uk\/00001.02258.jpg","source":"jamcams-camera-list.xml"},{"id":"00001.02259","latitude":51.5117,"longitude":-0.02756,"category_icon_url":"http:\/\/comroads.com\/images\/categories\/icon_44.png","category_hover_icon_url":"http:\/\/comroads.com\/images\/categories\/hover\/icon_44.png","title":"East India Dock Rd\/Amoy Pl","url":"http:\/\/ar.comroads.com\/live-feed\/east-india-dock-rdamoy-pl-0000102259","country_code":"GB","thumbnail_url":"https:\/\/s3-eu-west-1.amazonaws.com\/jamcams.tfl.gov.uk\/00001.02259.jpg","source":"jamcams-camera-list.xml"},{"id":"00001.02260","latitude":51.5109,"longitude":-0.02134,"category_icon_url":"http:\/\/comroads.com\/images\/categories\/icon_44.png","category_hover_icon_url":"http:\/\/comroads.com\/images\/categories\/hover\/icon_44.png","title":"East India Dock Rd\/Upper Nth St","url":"http:\/\/ar.comroads.com\/live-feed\/east-india-dock-rdupper-nth-st-0000102260","country_code":"GB","thumbnail_url":"https:\/\/s3-eu-west-1.amazonaws.com\/jamcams.tfl.gov.uk\/00001.02260.jpg","source":"jamcams-camera-list.xml"},{"id":"00001.02262","latitude":51.5112,"longitude":-0.01399,"category_icon_url":"http:\/\/comroads.com\/images\/categories\/icon_44.png","category_hover_icon_url":"http:\/\/comroads.com\/images\/categories\/hover\/icon_44.png","title":"East India Dock Rd\/Chrisp St","url":"http:\/\/ar.comroads.com\/live-feed\/east-india-dock-rdchrisp-st-0000102262","country_code":"GB","thumbnail_url":"https:\/\/s3-eu-west-1.amazonaws.com\/jamcams.tfl.gov.uk\/00001.02262.jpg","source":"jamcams-camera-list.xml"},{"id":"00001.02263","latitude":51.5128,"longitude":-0.00081,"category_icon_url":"http:\/\/comroads.com\/images\/categories\/icon_44.png","category_hover_icon_url":"http:\/\/comroads.com\/images\/categories\/hover\/icon_44.png","title":"East India Dock Rd\/Leamouth Rd","url":"http:\/\/ar.comroads.com\/live-feed\/east-india-dock-rdleamouth-rd-0000102263","country_code":"GB","thumbnail_url":"https:\/\/s3-eu-west-1.amazonaws.com\/jamcams.tfl.gov.uk\/00001.02263.jpg","source":"jamcams-camera-list.xml"},{"id":"00001.02264","latitude":51.5303,"longitude":0.09318,"category_icon_url":"http:\/\/comroads.com\/images\/categories\/icon_44.png","category_hover_icon_url":"http:\/\/comroads.com\/images\/categories\/hover\/icon_44.png","title":"A13 Alfreds Way\/Movers Ln","url":"http:\/\/ar.comroads.com\/live-feed\/a13-alfreds-waymovers-ln-0000102264","country_code":"GB","thumbnail_url":"https:\/\/s3-eu-west-1.amazonaws.com\/jamcams.tfl.gov.uk\/00001.02264.jpg","source":"jamcams-camera-list.xml"},{"id":"00001.02265","latitude":51.5072,"longitude":-0.01003,"category_icon_url":"http:\/\/comroads.com\/images\/categories\/icon_44.png","category_hover_icon_url":"http:\/\/comroads.com\/images\/categories\/hover\/icon_44.png","title":"Aspen Way\/Cotton Street","url":"http:\/\/ar.comroads.com\/live-feed\/aspen-waycotton-street-0000102265","country_code":"GB","thumbnail_url":"https:\/\/s3-eu-west-1.amazonaws.com\/jamcams.tfl.gov.uk\/00001.02265.jpg","source":"jamcams-camera-list.xml"},{"id":"00001.02267","latitude":51.5115,"longitude":-0.00971,"category_icon_url":"http:\/\/comroads.com\/images\/categories\/icon_44.png","category_hover_icon_url":"http:\/\/comroads.com\/images\/categories\/hover\/icon_44.png","title":"A13 East India Dock\/Cotton St","url":"http:\/\/ar.comroads.com\/live-feed\/a13-east-india-dockcotton-st-0000102267","country_code":"GB","thumbnail_url":"https:\/\/s3-eu-west-1.amazonaws.com\/jamcams.tfl.gov.uk\/00001.02267.jpg","source":"jamcams-camera-list.xml"},{"id":"00001.02268","latitude":51.5133,"longitude":-0.04692,"category_icon_url":"http:\/\/comroads.com\/images\/categories\/icon_44.png","category_hover_icon_url":"http:\/\/comroads.com\/images\/categories\/hover\/icon_44.png","title":"Commercial Rd\/Albert Gardens","url":"http:\/\/ar.comroads.com\/live-feed\/commercial-rdalbert-gardens-0000102268","country_code":"GB","thumbnail_url":"https:\/\/s3-eu-west-1.amazonaws.com\/jamcams.tfl.gov.uk\/00001.02268.jpg","source":"jamcams-camera-list.xml"},{"id":"00001.02269","latitude":51.5132,"longitude":-0.04356,"category_icon_url":"http:\/\/comroads.com\/images\/categories\/icon_44.png","category_hover_icon_url":"http:\/\/comroads.com\/images\/categories\/hover\/icon_44.png","title":"Commercial Rd\/Westport St","url":"http:\/\/ar.comroads.com\/live-feed\/commercial-rdwestport-st-0000102269","country_code":"GB","thumbnail_url":"https:\/\/s3-eu-west-1.amazonaws.com\/jamcams.tfl.gov.uk\/00001.02269.jpg","source":"jamcams-camera-list.xml"},{"id":"00001.02300","latitude":51.5208,"longitude":0.01934,"category_icon_url":"http:\/\/comroads.com\/images\/categories\/icon_44.png","category_hover_icon_url":"http:\/\/comroads.com\/images\/categories\/hover\/icon_44.png","title":"Barking Rd\/King St","url":"http:\/\/ar.comroads.com\/live-feed\/barking-rdking-st-0000102300","country_code":"GB","thumbnail_url":"https:\/\/s3-eu-west-1.amazonaws.com\/jamcams.tfl.gov.uk\/00001.02300.jpg","source":"jamcams-camera-list.xml"},{"id":"00001.02301","latitude":51.5217,"longitude":0.02102,"category_icon_url":"http:\/\/comroads.com\/images\/categories\/icon_44.png","category_hover_icon_url":"http:\/\/comroads.com\/images\/categories\/hover\/icon_44.png","title":"Barking Rd\/Chargable Lane","url":"http:\/\/ar.comroads.com\/live-feed\/barking-rdchargable-lane-0000102301","country_code":"GB","thumbnail_url":"https:\/\/s3-eu-west-1.amazonaws.com\/jamcams.tfl.gov.uk\/00001.02301.jpg","source":"jamcams-camera-list.xml"},{"id":"00001.02307","latitude":51.5325,"longitude":0.05063,"category_icon_url":"http:\/\/comroads.com\/images\/categories\/icon_44.png","category_hover_icon_url":"http:\/\/comroads.com\/images\/categories\/hover\/icon_44.png","title":"Barking Rd \/ W of Bartle Ave","url":"http:\/\/ar.comroads.com\/live-feed\/barking-rd-w-of-bartle-ave-0000102307","country_code":"GB","thumbnail_url":"https:\/\/s3-eu-west-1.amazonaws.com\/jamcams.tfl.gov.uk\/00001.02307.jpg","source":"jamcams-camera-list.xml"},{"id":"00001.02310","latitude":51.5049,"longitude":0.03964,"category_icon_url":"http:\/\/comroads.com\/images\/categories\/icon_44.png","category_hover_icon_url":"http:\/\/comroads.com\/images\/categories\/hover\/icon_44.png","title":"Connaught Bridge\/Connaught Rd","url":"http:\/\/ar.comroads.com\/live-feed\/connaught-bridgeconnaught-rd-0000102310","country_code":"GB","thumbnail_url":"https:\/\/s3-eu-west-1.amazonaws.com\/jamcams.tfl.gov.uk\/00001.02310.jpg","source":"jamcams-camera-list.xml"},{"id":"00001.02312","latitude":51.5083,"longitude":0.01685,"category_icon_url":"http:\/\/comroads.com\/images\/categories\/icon_44.png","category_hover_icon_url":"http:\/\/comroads.com\/images\/categories\/hover\/icon_44.png","title":"Silvertown Way\/Tidal Basin Rd","url":"http:\/\/ar.comroads.com\/live-feed\/silvertown-waytidal-basin-rd-0000102312","country_code":"GB","thumbnail_url":"https:\/\/s3-eu-west-1.amazonaws.com\/jamcams.tfl.gov.uk\/00001.02312.jpg","source":"jamcams-camera-list.xml"},{"id":"00001.02314","latitude":51.5259,"longitude":0.02915,"category_icon_url":"http:\/\/comroads.com\/images\/categories\/icon_44.png","category_hover_icon_url":"http:\/\/comroads.com\/images\/categories\/hover\/icon_44.png","title":"Barking Rd\/Prince Regent Lane","url":"http:\/\/ar.comroads.com\/live-feed\/barking-rdprince-regent-lane-0000102314","country_code":"GB","thumbnail_url":"https:\/\/s3-eu-west-1.amazonaws.com\/jamcams.tfl.gov.uk\/00001.02314.jpg","source":"jamcams-camera-list.xml"},{"id":"00001.02315","latitude":51.5303,"longitude":0.03772,"category_icon_url":"http:\/\/comroads.com\/images\/categories\/icon_44.png","category_hover_icon_url":"http:\/\/comroads.com\/images\/categories\/hover\/icon_44.png","title":"Barking Rd\/Green St","url":"http:\/\/ar.comroads.com\/live-feed\/barking-rdgreen-st-0000102315","country_code":"GB","thumbnail_url":"https:\/\/s3-eu-west-1.amazonaws.com\/jamcams.tfl.gov.uk\/00001.02315.jpg","source":"jamcams-camera-list.xml"},{"id":"00001.02331","latitude":51.5352,"longitude":0.00881,"category_icon_url":"http:\/\/comroads.com\/images\/categories\/icon_44.png","category_hover_icon_url":"http:\/\/comroads.com\/images\/categories\/hover\/icon_44.png","title":"Manor Rd\/New Plaistow Rd","url":"http:\/\/ar.comroads.com\/live-feed\/manor-rdnew-plaistow-rd-0000102331","country_code":"GB","thumbnail_url":"https:\/\/s3-eu-west-1.amazonaws.com\/jamcams.tfl.gov.uk\/00001.02331.jpg","source":"jamcams-camera-list.xml"},{"id":"00001.02333","latitude":51.5369,"longitude":0.00626,"category_icon_url":"http:\/\/comroads.com\/images\/categories\/icon_44.png","category_hover_icon_url":"http:\/\/comroads.com\/images\/categories\/hover\/icon_44.png","title":"West Ham Lane\/Densham Rd","url":"http:\/\/ar.comroads.com\/live-feed\/west-ham-lanedensham-rd-0000102333","country_code":"GB","thumbnail_url":"https:\/\/s3-eu-west-1.amazonaws.com\/jamcams.tfl.gov.uk\/00001.02333.jpg","source":"jamcams-camera-list.xml"},{"id":"00001.02335","latitude":51.5466,"longitude":-0.00091,"category_icon_url":"http:\/\/comroads.com\/images\/categories\/icon_44.png","category_hover_icon_url":"http:\/\/comroads.com\/images\/categories\/hover\/icon_44.png","title":"Leyton Rd\/Montfichet Rd\/Penny Brookes St","url":"http:\/\/ar.comroads.com\/live-feed\/leyton-rdmontfichet-rdpenny-brookes-st-0000102335","country_code":"GB","thumbnail_url":"https:\/\/s3-eu-west-1.amazonaws.com\/jamcams.tfl.gov.uk\/00001.02335.jpg","source":"jamcams-camera-list.xml"},{"id":"00001.02339","latitude":51.5584,"longitude":-0.00707,"category_icon_url":"http:\/\/comroads.com\/images\/categories\/icon_44.png","category_hover_icon_url":"http:\/\/comroads.com\/images\/categories\/hover\/icon_44.png","title":"High Rd\/Ruckholt Rd","url":"http:\/\/ar.comroads.com\/live-feed\/high-rdruckholt-rd-0000102339","country_code":"GB","thumbnail_url":"https:\/\/s3-eu-west-1.amazonaws.com\/jamcams.tfl.gov.uk\/00001.02339.jpg","source":"jamcams-camera-list.xml"},{"id":"00001.02342","latitude":51.5702,"longitude":-0.02527,"category_icon_url":"http:\/\/comroads.com\/images\/categories\/icon_44.png","category_hover_icon_url":"http:\/\/comroads.com\/images\/categories\/hover\/icon_44.png","title":"Lea Bridge Rd\/Markhouse Rd","url":"http:\/\/ar.comroads.com\/live-feed\/lea-bridge-rdmarkhouse-rd-0000102342","country_code":"GB","thumbnail_url":"https:\/\/s3-eu-west-1.amazonaws.com\/jamcams.tfl.gov.uk\/00001.02342.jpg","source":"jamcams-camera-list.xml"},{"id":"00001.02351","latitude":51.509,"longitude":-0.06754,"category_icon_url":"http:\/\/comroads.com\/images\/categories\/icon_44.png","category_hover_icon_url":"http:\/\/comroads.com\/images\/categories\/hover\/icon_44.png","title":"The Highway\/Vaughan Way","url":"http:\/\/ar.comroads.com\/live-feed\/the-highwayvaughan-way-0000102351","country_code":"GB","thumbnail_url":"https:\/\/s3-eu-west-1.amazonaws.com\/jamcams.tfl.gov.uk\/00001.02351.jpg","source":"jamcams-camera-list.xml"},{"id":"00001.02352","latitude":51.5097,"longitude":-0.05046,"category_icon_url":"http:\/\/comroads.com\/images\/categories\/icon_44.png","category_hover_icon_url":"http:\/\/comroads.com\/images\/categories\/hover\/icon_44.png","title":"The Highway\/Glammis Road","url":"http:\/\/ar.comroads.com\/live-feed\/the-highwayglammis-road-0000102352","country_code":"GB","thumbnail_url":"https:\/\/s3-eu-west-1.amazonaws.com\/jamcams.tfl.gov.uk\/00001.02352.jpg","source":"jamcams-camera-list.xml"},{"id":"00001.02353","latitude":51.5097,"longitude":-0.05876,"category_icon_url":"http:\/\/comroads.com\/images\/categories\/icon_44.png","category_hover_icon_url":"http:\/\/comroads.com\/images\/categories\/hover\/icon_44.png","title":"The Highway\/Wapping Lane","url":"http:\/\/ar.comroads.com\/live-feed\/the-highwaywapping-lane-0000102353","country_code":"GB","thumbnail_url":"https:\/\/s3-eu-west-1.amazonaws.com\/jamcams.tfl.gov.uk\/00001.02353.jpg","source":"jamcams-camera-list.xml"},{"id":"00001.02414","latitude":51.5764,"longitude":0.06064,"category_icon_url":"http:\/\/comroads.com\/images\/categories\/icon_44.png","category_hover_icon_url":"http:\/\/comroads.com\/images\/categories\/hover\/icon_44.png","title":"A12 Eastern Av\/Beehive Lane","url":"http:\/\/ar.comroads.com\/live-feed\/a12-eastern-avbeehive-lane-0000102414","country_code":"GB","thumbnail_url":"https:\/\/s3-eu-west-1.amazonaws.com\/jamcams.tfl.gov.uk\/00001.02414.jpg","source":"jamcams-camera-list.xml"},{"id":"00001.02415","latitude":51.5764,"longitude":0.06583,"category_icon_url":"http:\/\/comroads.com\/images\/categories\/icon_44.png","category_hover_icon_url":"http:\/\/comroads.com\/images\/categories\/hover\/icon_44.png","title":"A12\/Gants Hill Roundabout","url":"http:\/\/ar.comroads.com\/live-feed\/a12gants-hill-roundabout-0000102415","country_code":"GB","thumbnail_url":"https:\/\/s3-eu-west-1.amazonaws.com\/jamcams.tfl.gov.uk\/00001.02415.jpg","source":"jamcams-camera-list.xml"},{"id":"00001.02418","latitude":51.5755,"longitude":0.09367,"category_icon_url":"http:\/\/comroads.com\/images\/categories\/icon_44.png","category_hover_icon_url":"http:\/\/comroads.com\/images\/categories\/hover\/icon_44.png","title":"A12 Eastern Av\/Brook Rd","url":"http:\/\/ar.comroads.com\/live-feed\/a12-eastern-avbrook-rd-0000102418","country_code":"GB","thumbnail_url":"https:\/\/s3-eu-west-1.amazonaws.com\/jamcams.tfl.gov.uk\/00001.02418.jpg","source":"jamcams-camera-list.xml"},{"id":"00001.02420","latitude":51.5823,"longitude":0.11658,"category_icon_url":"http:\/\/comroads.com\/images\/categories\/icon_44.png","category_hover_icon_url":"http:\/\/comroads.com\/images\/categories\/hover\/icon_44.png","title":"A12 Eastern Av\/Barley Lane","url":"http:\/\/ar.comroads.com\/live-feed\/a12-eastern-avbarley-lane-0000102420","country_code":"GB","thumbnail_url":"https:\/\/s3-eu-west-1.amazonaws.com\/jamcams.tfl.gov.uk\/00001.02420.jpg","source":"jamcams-camera-list.xml"},{"id":"00001.02424","latitude":51.5814,"longitude":0.16445,"category_icon_url":"http:\/\/comroads.com\/images\/categories\/icon_44.png","category_hover_icon_url":"http:\/\/comroads.com\/images\/categories\/hover\/icon_44.png","title":"A12 Eastern Ave\/Mawney Road","url":"http:\/\/ar.comroads.com\/live-feed\/a12-eastern-avemawney-road-0000102424","country_code":"GB","thumbnail_url":"https:\/\/s3-eu-west-1.amazonaws.com\/jamcams.tfl.gov.uk\/00001.02424.jpg","source":"jamcams-camera-list.xml"},{"id":"00001.02425","latitude":51.5865,"longitude":0.17314,"category_icon_url":"http:\/\/comroads.com\/images\/categories\/icon_44.png","category_hover_icon_url":"http:\/\/comroads.com\/images\/categories\/hover\/icon_44.png","title":"A12 Eastern Avenue\/A125 North St","url":"http:\/\/ar.comroads.com\/live-feed\/a12-eastern-avenuea125-north-st-0000102425","country_code":"GB","thumbnail_url":"https:\/\/s3-eu-west-1.amazonaws.com\/jamcams.tfl.gov.uk\/00001.02425.jpg","source":"jamcams-camera-list.xml"},{"id":"00001.02431","latitude":51.5955,"longitude":0.19637,"category_icon_url":"http:\/\/comroads.com\/images\/categories\/icon_44.png","category_hover_icon_url":"http:\/\/comroads.com\/images\/categories\/hover\/icon_44.png","title":"A12 Eastern Ave\/Heath Drive","url":"http:\/\/ar.comroads.com\/live-feed\/a12-eastern-aveheath-drive-0000102431","country_code":"GB","thumbnail_url":"https:\/\/s3-eu-west-1.amazonaws.com\/jamcams.tfl.gov.uk\/00001.02431.jpg","source":"jamcams-camera-list.xml"},{"id":"00001.02453","latitude":51.5869,"longitude":0.22454,"category_icon_url":"http:\/\/comroads.com\/images\/categories\/icon_44.png","category_hover_icon_url":"http:\/\/comroads.com\/images\/categories\/hover\/icon_44.png","title":"A127\/Squirrels Heath Drive","url":"http:\/\/ar.comroads.com\/live-feed\/a127squirrels-heath-drive-0000102453","country_code":"GB","thumbnail_url":"https:\/\/s3-eu-west-1.amazonaws.com\/jamcams.tfl.gov.uk\/00001.02453.jpg","source":"jamcams-camera-list.xml"},{"id":"00001.02500","latitude":51.5107,"longitude":-0.11512,"category_icon_url":"http:\/\/comroads.com\/images\/categories\/icon_44.png","category_hover_icon_url":"http:\/\/comroads.com\/images\/categories\/hover\/icon_44.png","title":"Victoria Embkmt\/Temple Place","url":"http:\/\/ar.comroads.com\/live-feed\/victoria-embkmttemple-place-0000102500","country_code":"GB","thumbnail_url":"https:\/\/s3-eu-west-1.amazonaws.com\/jamcams.tfl.gov.uk\/00001.02500.jpg","source":"jamcams-camera-list.xml"},{"id":"00001.02645","latitude":51.4583,"longitude":-0.19202,"category_icon_url":"http:\/\/comroads.com\/images\/categories\/icon_44.png","category_hover_icon_url":"http:\/\/comroads.com\/images\/categories\/hover\/icon_44.png","title":"Ram St\/Barchard St","url":"http:\/\/ar.comroads.com\/live-feed\/ram-stbarchard-st-0000102645","country_code":"GB","thumbnail_url":"https:\/\/s3-eu-west-1.amazonaws.com\/jamcams.tfl.gov.uk\/00001.02645.jpg","source":"jamcams-camera-list.xml"},{"id":"00001.02900","latitude":51.5336,"longitude":-0.02256,"category_icon_url":"http:\/\/comroads.com\/images\/categories\/icon_44.png","category_hover_icon_url":"http:\/\/comroads.com\/images\/categories\/hover\/icon_44.png","title":"East Cross Route\/Tredeger Rd","url":"http:\/\/ar.comroads.com\/live-feed\/east-cross-routetredeger-rd-0000102900","country_code":"GB","thumbnail_url":"https:\/\/s3-eu-west-1.amazonaws.com\/jamcams.tfl.gov.uk\/00001.02900.jpg","source":"jamcams-camera-list.xml"},{"id":"00001.03005","latitude":51.4978,"longitude":0.00289,"category_icon_url":"http:\/\/comroads.com\/images\/categories\/icon_44.png","category_hover_icon_url":"http:\/\/comroads.com\/images\/categories\/hover\/icon_44.png","title":"Millennium Wy\/Edmund Halley Wy","url":"http:\/\/ar.comroads.com\/live-feed\/millennium-wyedmund-halley-wy-0000103005","country_code":"GB","thumbnail_url":"https:\/\/s3-eu-west-1.amazonaws.com\/jamcams.tfl.gov.uk\/00001.03005.jpg","source":"jamcams-camera-list.xml"},{"id":"00001.03007","latitude":51.4949,"longitude":0.01184,"category_icon_url":"http:\/\/comroads.com\/images\/categories\/icon_44.png","category_hover_icon_url":"http:\/\/comroads.com\/images\/categories\/hover\/icon_44.png","title":"West Parkside\/John Harrison Wy","url":"http:\/\/ar.comroads.com\/live-feed\/west-parksidejohn-harrison-wy-0000103007","country_code":"GB","thumbnail_url":"https:\/\/s3-eu-west-1.amazonaws.com\/jamcams.tfl.gov.uk\/00001.03007.jpg","source":"jamcams-camera-list.xml"},{"id":"00001.03105","latitude":51.4837,"longitude":-0.00014,"category_icon_url":"http:\/\/comroads.com\/images\/categories\/icon_44.png","category_hover_icon_url":"http:\/\/comroads.com\/images\/categories\/hover\/icon_44.png","title":"Trafalgar Rd\/Greenwich Pk St","url":"http:\/\/ar.comroads.com\/live-feed\/trafalgar-rdgreenwich-pk-st-0000103105","country_code":"GB","thumbnail_url":"https:\/\/s3-eu-west-1.amazonaws.com\/jamcams.tfl.gov.uk\/00001.03105.jpg","source":"jamcams-camera-list.xml"},{"id":"00001.03108","latitude":51.4862,"longitude":0.00843,"category_icon_url":"http:\/\/comroads.com\/images\/categories\/icon_44.png","category_hover_icon_url":"http:\/\/comroads.com\/images\/categories\/hover\/icon_44.png","title":"Woolwich Rd\/Hatcliffe st","url":"http:\/\/ar.comroads.com\/live-feed\/woolwich-rdhatcliffe-st-0000103108","country_code":"GB","thumbnail_url":"https:\/\/s3-eu-west-1.amazonaws.com\/jamcams.tfl.gov.uk\/00001.03108.jpg","source":"jamcams-camera-list.xml"},{"id":"00001.03111","latitude":51.4863,"longitude":0.01695,"category_icon_url":"http:\/\/comroads.com\/images\/categories\/icon_44.png","category_hover_icon_url":"http:\/\/comroads.com\/images\/categories\/hover\/icon_44.png","title":"Woolwich Rd\/A102 Flyover","url":"http:\/\/ar.comroads.com\/live-feed\/woolwich-rda102-flyover-0000103111","country_code":"GB","thumbnail_url":"https:\/\/s3-eu-west-1.amazonaws.com\/jamcams.tfl.gov.uk\/00001.03111.jpg","source":"jamcams-camera-list.xml"},{"id":"00001.03115","latitude":51.4878,"longitude":0.0311,"category_icon_url":"http:\/\/comroads.com\/images\/categories\/icon_44.png","category_hover_icon_url":"http:\/\/comroads.com\/images\/categories\/hover\/icon_44.png","title":"Woolwich Rd\/Charlton Church Lane","url":"http:\/\/ar.comroads.com\/live-feed\/woolwich-rdcharlton-church-lane-0000103115","country_code":"GB","thumbnail_url":"https:\/\/s3-eu-west-1.amazonaws.com\/jamcams.tfl.gov.uk\/00001.03115.jpg","source":"jamcams-camera-list.xml"},{"id":"00001.03118","latitude":51.4925,"longitude":0.0454,"category_icon_url":"http:\/\/comroads.com\/images\/categories\/icon_44.png","category_hover_icon_url":"http:\/\/comroads.com\/images\/categories\/hover\/icon_44.png","title":"Woolich Rd\/Warspite Rd","url":"http:\/\/ar.comroads.com\/live-feed\/woolich-rdwarspite-rd-0000103118","country_code":"GB","thumbnail_url":"https:\/\/s3-eu-west-1.amazonaws.com\/jamcams.tfl.gov.uk\/00001.03118.jpg","source":"jamcams-camera-list.xml"},{"id":"00001.03125","latitude":51.4926,"longitude":0.08607,"category_icon_url":"http:\/\/comroads.com\/images\/categories\/icon_44.png","category_hover_icon_url":"http:\/\/comroads.com\/images\/categories\/hover\/icon_44.png","title":"Pettman Crescent\/Western Way","url":"http:\/\/ar.comroads.com\/live-feed\/pettman-crescentwestern-way-0000103125","country_code":"GB","thumbnail_url":"https:\/\/s3-eu-west-1.amazonaws.com\/jamcams.tfl.gov.uk\/00001.03125.jpg","source":"jamcams-camera-list.xml"},{"id":"00001.03205","latitude":51.4743,"longitude":0.03774,"category_icon_url":"http:\/\/comroads.com\/images\/categories\/icon_44.png","category_hover_icon_url":"http:\/\/comroads.com\/images\/categories\/hover\/icon_44.png","title":"Shooters Hill Rd\/Charlton Pk Ln","url":"http:\/\/ar.comroads.com\/live-feed\/shooters-hill-rdcharlton-pk-ln-0000103205","country_code":"GB","thumbnail_url":"https:\/\/s3-eu-west-1.amazonaws.com\/jamcams.tfl.gov.uk\/00001.03205.jpg","source":"jamcams-camera-list.xml"},{"id":"00001.03220","latitude":51.4551,"longitude":0.153,"category_icon_url":"http:\/\/comroads.com\/images\/categories\/icon_44.png","category_hover_icon_url":"http:\/\/comroads.com\/images\/categories\/hover\/icon_44.png","title":"Watling St\/Gravel Hill","url":"http:\/\/ar.comroads.com\/live-feed\/watling-stgravel-hill-0000103220","country_code":"GB","thumbnail_url":"https:\/\/s3-eu-west-1.amazonaws.com\/jamcams.tfl.gov.uk\/00001.03220.jpg","source":"jamcams-camera-list.xml"},{"id":"00001.03223","latitude":51.4516,"longitude":0.17875,"category_icon_url":"http:\/\/comroads.com\/images\/categories\/icon_44.png","category_hover_icon_url":"http:\/\/comroads.com\/images\/categories\/hover\/icon_44.png","title":"Crayford Rd\/Crayford Way","url":"http:\/\/ar.comroads.com\/live-feed\/crayford-rdcrayford-way-0000103223","country_code":"GB","thumbnail_url":"https:\/\/s3-eu-west-1.amazonaws.com\/jamcams.tfl.gov.uk\/00001.03223.jpg","source":"jamcams-camera-list.xml"},{"id":"00001.03488","latitude":51.4961,"longitude":-0.08297,"category_icon_url":"http:\/\/comroads.com\/images\/categories\/icon_44.png","category_hover_icon_url":"http:\/\/comroads.com\/images\/categories\/hover\/icon_44.png","title":"Tower Bridge Rd\/Rothsay St","url":"http:\/\/ar.comroads.com\/live-feed\/tower-bridge-rdrothsay-st-0000103488","country_code":"GB","thumbnail_url":"https:\/\/s3-eu-west-1.amazonaws.com\/jamcams.tfl.gov.uk\/00001.03488.jpg","source":"jamcams-camera-list.xml"},{"id":"00001.03490","latitude":51.4968,"longitude":-0.08187,"category_icon_url":"http:\/\/comroads.com\/images\/categories\/icon_44.png","category_hover_icon_url":"http:\/\/comroads.com\/images\/categories\/hover\/icon_44.png","title":"Twr Brdge Rd\/Grange Rd","url":"http:\/\/ar.comroads.com\/live-feed\/twr-brdge-rdgrange-rd-0000103490","country_code":"GB","thumbnail_url":"https:\/\/s3-eu-west-1.amazonaws.com\/jamcams.tfl.gov.uk\/00001.03490.jpg","source":"jamcams-camera-list.xml"},{"id":"00001.03493","latitude":51.4973,"longitude":-0.08017,"category_icon_url":"http:\/\/comroads.com\/images\/categories\/icon_44.png","category_hover_icon_url":"http:\/\/comroads.com\/images\/categories\/hover\/icon_44.png","title":"Tower Bridge Rd\/Grange Walk","url":"http:\/\/ar.comroads.com\/live-feed\/tower-bridge-rdgrange-walk-0000103493","country_code":"GB","thumbnail_url":"https:\/\/s3-eu-west-1.amazonaws.com\/jamcams.tfl.gov.uk\/00001.03493.jpg","source":"jamcams-camera-list.xml"},{"id":"00001.03500","latitude":51.509,"longitude":-0.07368,"category_icon_url":"http:\/\/comroads.com\/images\/categories\/icon_44.png","category_hover_icon_url":"http:\/\/comroads.com\/images\/categories\/hover\/icon_44.png","title":"Tower Bridge App.\/East Smithfield","url":"http:\/\/ar.comroads.com\/live-feed\/tower-bridge-appeast-smithfield-0000103500","country_code":"GB","thumbnail_url":"https:\/\/s3-eu-west-1.amazonaws.com\/jamcams.tfl.gov.uk\/00001.03500.jpg","source":"jamcams-camera-list.xml"},{"id":"00001.03505","latitude":51.5039,"longitude":-0.08136,"category_icon_url":"http:\/\/comroads.com\/images\/categories\/icon_44.png","category_hover_icon_url":"http:\/\/comroads.com\/images\/categories\/hover\/icon_44.png","title":"Tooley St\/Abbots Lane","url":"http:\/\/ar.comroads.com\/live-feed\/tooley-stabbots-lane-0000103505","country_code":"GB","thumbnail_url":"https:\/\/s3-eu-west-1.amazonaws.com\/jamcams.tfl.gov.uk\/00001.03505.jpg","source":"jamcams-camera-list.xml"},{"id":"00001.03506","latitude":51.502,"longitude":-0.07681,"category_icon_url":"http:\/\/comroads.com\/images\/categories\/icon_44.png","category_hover_icon_url":"http:\/\/comroads.com\/images\/categories\/hover\/icon_44.png","title":"Tooley St\/Boss St","url":"http:\/\/ar.comroads.com\/live-feed\/tooley-stboss-st-0000103506","country_code":"GB","thumbnail_url":"https:\/\/s3-eu-west-1.amazonaws.com\/jamcams.tfl.gov.uk\/00001.03506.jpg","source":"jamcams-camera-list.xml"},{"id":"00001.03540","latitude":51.5005,"longitude":-0.07445,"category_icon_url":"http:\/\/comroads.com\/images\/categories\/icon_44.png","category_hover_icon_url":"http:\/\/comroads.com\/images\/categories\/hover\/icon_44.png","title":"Tooley St\/Jamaica Rd","url":"http:\/\/ar.comroads.com\/live-feed\/tooley-stjamaica-rd-0000103540","country_code":"GB","thumbnail_url":"https:\/\/s3-eu-west-1.amazonaws.com\/jamcams.tfl.gov.uk\/00001.03540.jpg","source":"jamcams-camera-list.xml"},{"id":"00001.03550","latitude":51.499,"longitude":-0.07034,"category_icon_url":"http:\/\/comroads.com\/images\/categories\/icon_44.png","category_hover_icon_url":"http:\/\/comroads.com\/images\/categories\/hover\/icon_44.png","title":"Jamaica Rd W of Abbey St","url":"http:\/\/ar.comroads.com\/live-feed\/jamaica-rd-w-of-abbey-st-0000103550","country_code":"GB","thumbnail_url":"https:\/\/s3-eu-west-1.amazonaws.com\/jamcams.tfl.gov.uk\/00001.03550.jpg","source":"jamcams-camera-list.xml"},{"id":"00001.03551","latitude":51.4985,"longitude":-0.06964,"category_icon_url":"http:\/\/comroads.com\/images\/categories\/icon_44.png","category_hover_icon_url":"http:\/\/comroads.com\/images\/categories\/hover\/icon_44.png","title":"Jamaica Rd E of Abbey St","url":"http:\/\/ar.comroads.com\/live-feed\/jamaica-rd-e-of-abbey-st-0000103551","country_code":"GB","thumbnail_url":"https:\/\/s3-eu-west-1.amazonaws.com\/jamcams.tfl.gov.uk\/00001.03551.jpg","source":"jamcams-camera-list.xml"},{"id":"00001.03552","latitude":51.4986,"longitude":-0.06037,"category_icon_url":"http:\/\/comroads.com\/images\/categories\/icon_44.png","category_hover_icon_url":"http:\/\/comroads.com\/images\/categories\/hover\/icon_44.png","title":"Jamaica Rd\/Southwark Pk","url":"http:\/\/ar.comroads.com\/live-feed\/jamaica-rdsouthwark-pk-0000103552","country_code":"GB","thumbnail_url":"https:\/\/s3-eu-west-1.amazonaws.com\/jamcams.tfl.gov.uk\/00001.03552.jpg","source":"jamcams-camera-list.xml"},{"id":"00001.03553","latitude":51.4986,"longitude":-0.0611,"category_icon_url":"http:\/\/comroads.com\/images\/categories\/icon_44.png","category_hover_icon_url":"http:\/\/comroads.com\/images\/categories\/hover\/icon_44.png","title":"Jamaica Rd W of West Ln","url":"http:\/\/ar.comroads.com\/live-feed\/jamaica-rd-w-of-west-ln-0000103553","country_code":"GB","thumbnail_url":"https:\/\/s3-eu-west-1.amazonaws.com\/jamcams.tfl.gov.uk\/00001.03553.jpg","source":"jamcams-camera-list.xml"},{"id":"00001.03555","latitude":51.4991,"longitude":-0.05633,"category_icon_url":"http:\/\/comroads.com\/images\/categories\/icon_44.png","category_hover_icon_url":"http:\/\/comroads.com\/images\/categories\/hover\/icon_44.png","title":"Jamaica Rd W of Lower Rd","url":"http:\/\/ar.comroads.com\/live-feed\/jamaica-rd-w-of-lower-rd-0000103555","country_code":"GB","thumbnail_url":"https:\/\/s3-eu-west-1.amazonaws.com\/jamcams.tfl.gov.uk\/00001.03555.jpg","source":"jamcams-camera-list.xml"},{"id":"00001.03556","latitude":51.49,"longitude":-0.04228,"category_icon_url":"http:\/\/comroads.com\/images\/categories\/icon_44.png","category_hover_icon_url":"http:\/\/comroads.com\/images\/categories\/hover\/icon_44.png","title":"Evelyn Street \/ Bestwood St","url":"http:\/\/ar.comroads.com\/live-feed\/evelyn-street-bestwood-st-0000103556","country_code":"GB","thumbnail_url":"https:\/\/s3-eu-west-1.amazonaws.com\/jamcams.tfl.gov.uk\/00001.03556.jpg","source":"jamcams-camera-list.xml"},{"id":"00001.03557","latitude":51.4937,"longitude":-0.04832,"category_icon_url":"http:\/\/comroads.com\/images\/categories\/icon_44.png","category_hover_icon_url":"http:\/\/comroads.com\/images\/categories\/hover\/icon_44.png","title":"Lower Rd\/Rotherhithe Old Rd","url":"http:\/\/ar.comroads.com\/live-feed\/lower-rdrotherhithe-old-rd-0000103557","country_code":"GB","thumbnail_url":"https:\/\/s3-eu-west-1.amazonaws.com\/jamcams.tfl.gov.uk\/00001.03557.jpg","source":"jamcams-camera-list.xml"},{"id":"00001.03590","latitude":51.5276,"longitude":-0.11548,"category_icon_url":"http:\/\/comroads.com\/images\/categories\/icon_44.png","category_hover_icon_url":"http:\/\/comroads.com\/images\/categories\/hover\/icon_44.png","title":"Kings X Rd \/ Wharton St","url":"http:\/\/ar.comroads.com\/live-feed\/kings-x-rd-wharton-st-0000103590","country_code":"GB","thumbnail_url":"https:\/\/s3-eu-west-1.amazonaws.com\/jamcams.tfl.gov.uk\/00001.03590.jpg","source":"jamcams-camera-list.xml"},{"id":"00001.03591","latitude":51.5294,"longitude":-0.11572,"category_icon_url":"http:\/\/comroads.com\/images\/categories\/icon_44.png","category_hover_icon_url":"http:\/\/comroads.com\/images\/categories\/hover\/icon_44.png","title":"Kings X Rd \/ Swinton St","url":"http:\/\/ar.comroads.com\/live-feed\/kings-x-rd-swinton-st-0000103591","country_code":"GB","thumbnail_url":"https:\/\/s3-eu-west-1.amazonaws.com\/jamcams.tfl.gov.uk\/00001.03591.jpg","source":"jamcams-camera-list.xml"},{"id":"00001.03600","latitude":51.5232,"longitude":-0.10792,"category_icon_url":"http:\/\/comroads.com\/images\/categories\/icon_44.png","category_hover_icon_url":"http:\/\/comroads.com\/images\/categories\/hover\/icon_44.png","title":"Farringdon Rd opp Ray St","url":"http:\/\/ar.comroads.com\/live-feed\/farringdon-rd-opp-ray-st-0000103600","country_code":"GB","thumbnail_url":"https:\/\/s3-eu-west-1.amazonaws.com\/jamcams.tfl.gov.uk\/00001.03600.jpg","source":"jamcams-camera-list.xml"},{"id":"00001.03604","latitude":51.4934,"longitude":-0.1005,"category_icon_url":"http:\/\/comroads.com\/images\/categories\/icon_44.png","category_hover_icon_url":"http:\/\/comroads.com\/images\/categories\/hover\/icon_44.png","title":"Elephant & Castle\/Walworth Road","url":"http:\/\/ar.comroads.com\/live-feed\/elephant-castlewalworth-road-0000103604","country_code":"GB","thumbnail_url":"https:\/\/s3-eu-west-1.amazonaws.com\/jamcams.tfl.gov.uk\/00001.03604.jpg","source":"jamcams-camera-list.xml"},{"id":"00001.03606","latitude":51.4941,"longitude":-0.09159,"category_icon_url":"http:\/\/comroads.com\/images\/categories\/icon_44.png","category_hover_icon_url":"http:\/\/comroads.com\/images\/categories\/hover\/icon_44.png","title":"New Kent Rd \/ Balfour St","url":"http:\/\/ar.comroads.com\/live-feed\/new-kent-rd-balfour-st-0000103606","country_code":"GB","thumbnail_url":"https:\/\/s3-eu-west-1.amazonaws.com\/jamcams.tfl.gov.uk\/00001.03606.jpg","source":"jamcams-camera-list.xml"},{"id":"00001.03608","latitude":51.52,"longitude":-0.10586,"category_icon_url":"http:\/\/comroads.com\/images\/categories\/icon_44.png","category_hover_icon_url":"http:\/\/comroads.com\/images\/categories\/hover\/icon_44.png","title":"Farringdon Rd\/Cowcross St","url":"http:\/\/ar.comroads.com\/live-feed\/farringdon-rdcowcross-st-0000103608","country_code":"GB","thumbnail_url":"https:\/\/s3-eu-west-1.amazonaws.com\/jamcams.tfl.gov.uk\/00001.03608.jpg","source":"jamcams-camera-list.xml"},{"id":"00001.03609","latitude":51.5049,"longitude":-0.10466,"category_icon_url":"http:\/\/comroads.com\/images\/categories\/icon_44.png","category_hover_icon_url":"http:\/\/comroads.com\/images\/categories\/hover\/icon_44.png","title":"Blackfriars Rd\/Dolben St","url":"http:\/\/ar.comroads.com\/live-feed\/blackfriars-rddolben-st-0000103609","country_code":"GB","thumbnail_url":"https:\/\/s3-eu-west-1.amazonaws.com\/jamcams.tfl.gov.uk\/00001.03609.jpg","source":"jamcams-camera-list.xml"},{"id":"00001.03610","latitude":51.5018,"longitude":-0.10451,"category_icon_url":"http:\/\/comroads.com\/images\/categories\/icon_44.png","category_hover_icon_url":"http:\/\/comroads.com\/images\/categories\/hover\/icon_44.png","title":"Blackfriars Rd\/Pocock St","url":"http:\/\/ar.comroads.com\/live-feed\/blackfriars-rdpocock-st-0000103610","country_code":"GB","thumbnail_url":"https:\/\/s3-eu-west-1.amazonaws.com\/jamcams.tfl.gov.uk\/00001.03610.jpg","source":"jamcams-camera-list.xml"},{"id":"00001.03611","latitude":51.498,"longitude":-0.10376,"category_icon_url":"http:\/\/comroads.com\/images\/categories\/icon_44.png","category_hover_icon_url":"http:\/\/comroads.com\/images\/categories\/hover\/icon_44.png","title":"London Rd\/Thomas Doyle St","url":"http:\/\/ar.comroads.com\/live-feed\/london-rdthomas-doyle-st-0000103611","country_code":"GB","thumbnail_url":"https:\/\/s3-eu-west-1.amazonaws.com\/jamcams.tfl.gov.uk\/00001.03611.jpg","source":"jamcams-camera-list.xml"},{"id":"00001.03612","latitude":51.4958,"longitude":-0.10358,"category_icon_url":"http:\/\/comroads.com\/images\/categories\/icon_44.png","category_hover_icon_url":"http:\/\/comroads.com\/images\/categories\/hover\/icon_44.png","title":"St Georges Rd\/Hayles St","url":"http:\/\/ar.comroads.com\/live-feed\/st-georges-rdhayles-st-0000103612","country_code":"GB","thumbnail_url":"https:\/\/s3-eu-west-1.amazonaws.com\/jamcams.tfl.gov.uk\/00001.03612.jpg","source":"jamcams-camera-list.xml"},{"id":"00001.03642","latitude":51.49,"longitude":-0.07991,"category_icon_url":"http:\/\/comroads.com\/images\/categories\/icon_44.png","category_hover_icon_url":"http:\/\/comroads.com\/images\/categories\/hover\/icon_44.png","title":"Old Kent Rd\/Penry St","url":"http:\/\/ar.comroads.com\/live-feed\/old-kent-rdpenry-st-0000103642","country_code":"GB","thumbnail_url":"https:\/\/s3-eu-west-1.amazonaws.com\/jamcams.tfl.gov.uk\/00001.03642.jpg","source":"jamcams-camera-list.xml"},{"id":"00001.03643","latitude":51.4899,"longitude":-0.07999,"category_icon_url":"http:\/\/comroads.com\/images\/categories\/icon_44.png","category_hover_icon_url":"http:\/\/comroads.com\/images\/categories\/hover\/icon_44.png","title":"Old Kent Rd\/Surrey Square","url":"http:\/\/ar.comroads.com\/live-feed\/old-kent-rdsurrey-square-0000103643","country_code":"GB","thumbnail_url":"https:\/\/s3-eu-west-1.amazonaws.com\/jamcams.tfl.gov.uk\/00001.03643.jpg","source":"jamcams-camera-list.xml"},{"id":"00001.03651","latitude":51.4925,"longitude":-0.08365,"category_icon_url":"http:\/\/comroads.com\/images\/categories\/icon_44.png","category_hover_icon_url":"http:\/\/comroads.com\/images\/categories\/hover\/icon_44.png","title":"Old Kent Rd\/Preston Cls","url":"http:\/\/ar.comroads.com\/live-feed\/old-kent-rdpreston-cls-0000103651","country_code":"GB","thumbnail_url":"https:\/\/s3-eu-west-1.amazonaws.com\/jamcams.tfl.gov.uk\/00001.03651.jpg","source":"jamcams-camera-list.xml"},{"id":"00001.03652","latitude":51.4913,"longitude":-0.08168,"category_icon_url":"http:\/\/comroads.com\/images\/categories\/icon_44.png","category_hover_icon_url":"http:\/\/comroads.com\/images\/categories\/hover\/icon_44.png","title":"Old Kent Rd\/Hendre Rd","url":"http:\/\/ar.comroads.com\/live-feed\/old-kent-rdhendre-rd-0000103652","country_code":"GB","thumbnail_url":"https:\/\/s3-eu-west-1.amazonaws.com\/jamcams.tfl.gov.uk\/00001.03652.jpg","source":"jamcams-camera-list.xml"},{"id":"00001.03654","latitude":51.4861,"longitude":-0.07211,"category_icon_url":"http:\/\/comroads.com\/images\/categories\/icon_44.png","category_hover_icon_url":"http:\/\/comroads.com\/images\/categories\/hover\/icon_44.png","title":"Old Kent Rd\/Glengall Rd","url":"http:\/\/ar.comroads.com\/live-feed\/old-kent-rdglengall-rd-0000103654","country_code":"GB","thumbnail_url":"https:\/\/s3-eu-west-1.amazonaws.com\/jamcams.tfl.gov.uk\/00001.03654.jpg","source":"jamcams-camera-list.xml"},{"id":"00001.03656","latitude":51.4839,"longitude":-0.06641,"category_icon_url":"http:\/\/comroads.com\/images\/categories\/icon_44.png","category_hover_icon_url":"http:\/\/comroads.com\/images\/categories\/hover\/icon_44.png","title":"Old Kent Rd\/St James Rd","url":"http:\/\/ar.comroads.com\/live-feed\/old-kent-rdst-james-rd-0000103656","country_code":"GB","thumbnail_url":"https:\/\/s3-eu-west-1.amazonaws.com\/jamcams.tfl.gov.uk\/00001.03656.jpg","source":"jamcams-camera-list.xml"},{"id":"00001.03657","latitude":51.483,"longitude":-0.06423,"category_icon_url":"http:\/\/comroads.com\/images\/categories\/icon_44.png","category_hover_icon_url":"http:\/\/comroads.com\/images\/categories\/hover\/icon_44.png","title":"Old Kent Rd\/Peckham Pk R","url":"http:\/\/ar.comroads.com\/live-feed\/old-kent-rdpeckham-pk-r-0000103657","country_code":"GB","thumbnail_url":"https:\/\/s3-eu-west-1.amazonaws.com\/jamcams.tfl.gov.uk\/00001.03657.jpg","source":"jamcams-camera-list.xml"},{"id":"00001.03658","latitude":51.4805,"longitude":-0.05942,"category_icon_url":"http:\/\/comroads.com\/images\/categories\/icon_44.png","category_hover_icon_url":"http:\/\/comroads.com\/images\/categories\/hover\/icon_44.png","title":"Old Kent Rd\/Asylum Rd","url":"http:\/\/ar.comroads.com\/live-feed\/old-kent-rdasylum-rd-0000103658","country_code":"GB","thumbnail_url":"https:\/\/s3-eu-west-1.amazonaws.com\/jamcams.tfl.gov.uk\/00001.03658.jpg","source":"jamcams-camera-list.xml"},{"id":"00001.03659","latitude":51.4757,"longitude":-0.04707,"category_icon_url":"http:\/\/comroads.com\/images\/categories\/icon_44.png","category_hover_icon_url":"http:\/\/comroads.com\/images\/categories\/hover\/icon_44.png","title":"A2 New Cross Rd\/Billington Rd","url":"http:\/\/ar.comroads.com\/live-feed\/a2-new-cross-rdbillington-rd-0000103659","country_code":"GB","thumbnail_url":"https:\/\/s3-eu-west-1.amazonaws.com\/jamcams.tfl.gov.uk\/00001.03659.jpg","source":"jamcams-camera-list.xml"},{"id":"00001.03660","latitude":51.4753,"longitude":-0.04715,"category_icon_url":"http:\/\/comroads.com\/images\/categories\/icon_44.png","category_hover_icon_url":"http:\/\/comroads.com\/images\/categories\/hover\/icon_44.png","title":"A2 New Cross Rd\/Besson St","url":"http:\/\/ar.comroads.com\/live-feed\/a2-new-cross-rdbesson-st-0000103660","country_code":"GB","thumbnail_url":"https:\/\/s3-eu-west-1.amazonaws.com\/jamcams.tfl.gov.uk\/00001.03660.jpg","source":"jamcams-camera-list.xml"},{"id":"00001.03662","latitude":51.4744,"longitude":-0.04328,"category_icon_url":"http:\/\/comroads.com\/images\/categories\/icon_44.png","category_hover_icon_url":"http:\/\/comroads.com\/images\/categories\/hover\/icon_44.png","title":"A2 New Cross Rd\/Nettleton Rd","url":"http:\/\/ar.comroads.com\/live-feed\/a2-new-cross-rdnettleton-rd-0000103662","country_code":"GB","thumbnail_url":"https:\/\/s3-eu-west-1.amazonaws.com\/jamcams.tfl.gov.uk\/00001.03662.jpg","source":"jamcams-camera-list.xml"},{"id":"00001.03663","latitude":51.475,"longitude":-0.03958,"category_icon_url":"http:\/\/comroads.com\/images\/categories\/icon_44.png","category_hover_icon_url":"http:\/\/comroads.com\/images\/categories\/hover\/icon_44.png","title":"A2 New Cross Rd\/St James","url":"http:\/\/ar.comroads.com\/live-feed\/a2-new-cross-rdst-james-0000103663","country_code":"GB","thumbnail_url":"https:\/\/s3-eu-west-1.amazonaws.com\/jamcams.tfl.gov.uk\/00001.03663.jpg","source":"jamcams-camera-list.xml"},{"id":"00001.03664","latitude":51.4754,"longitude":-0.02898,"category_icon_url":"http:\/\/comroads.com\/images\/categories\/icon_44.png","category_hover_icon_url":"http:\/\/comroads.com\/images\/categories\/hover\/icon_44.png","title":"A2 New Cross Rd\/Florence Rd","url":"http:\/\/ar.comroads.com\/live-feed\/a2-new-cross-rdflorence-rd-0000103664","country_code":"GB","thumbnail_url":"https:\/\/s3-eu-west-1.amazonaws.com\/jamcams.tfl.gov.uk\/00001.03664.jpg","source":"jamcams-camera-list.xml"},{"id":"00001.03665","latitude":51.4747,"longitude":-0.02422,"category_icon_url":"http:\/\/comroads.com\/images\/categories\/icon_44.png","category_hover_icon_url":"http:\/\/comroads.com\/images\/categories\/hover\/icon_44.png","title":"Deptford Broadway\/Deptford Ch St","url":"http:\/\/ar.comroads.com\/live-feed\/deptford-broadwaydeptford-ch-st-0000103665","country_code":"GB","thumbnail_url":"https:\/\/s3-eu-west-1.amazonaws.com\/jamcams.tfl.gov.uk\/00001.03665.jpg","source":"jamcams-camera-list.xml"},{"id":"00001.03666","latitude":51.4737,"longitude":-0.08359,"category_icon_url":"http:\/\/comroads.com\/images\/categories\/icon_44.png","category_hover_icon_url":"http:\/\/comroads.com\/images\/categories\/hover\/icon_44.png","title":"Peckham Rd E of Vestry Rd","url":"http:\/\/ar.comroads.com\/live-feed\/peckham-rd-e-of-vestry-rd-0000103666","country_code":"GB","thumbnail_url":"https:\/\/s3-eu-west-1.amazonaws.com\/jamcams.tfl.gov.uk\/00001.03666.jpg","source":"jamcams-camera-list.xml"},{"id":"00001.03667","latitude":51.4883,"longitude":-0.07645,"category_icon_url":"http:\/\/comroads.com\/images\/categories\/icon_44.png","category_hover_icon_url":"http:\/\/comroads.com\/images\/categories\/hover\/icon_44.png","title":"Old Kent Rd\/Humphrey St","url":"http:\/\/ar.comroads.com\/live-feed\/old-kent-rdhumphrey-st-0000103667","country_code":"GB","thumbnail_url":"https:\/\/s3-eu-west-1.amazonaws.com\/jamcams.tfl.gov.uk\/00001.03667.jpg","source":"jamcams-camera-list.xml"},{"id":"00001.03668","latitude":51.4739,"longitude":-0.0665,"category_icon_url":"http:\/\/comroads.com\/images\/categories\/icon_44.png","category_hover_icon_url":"http:\/\/comroads.com\/images\/categories\/hover\/icon_44.png","title":"Peckham Hg St wof Clayton Rd","url":"http:\/\/ar.comroads.com\/live-feed\/peckham-hg-st-wof-clayton-rd-0000103668","country_code":"GB","thumbnail_url":"https:\/\/s3-eu-west-1.amazonaws.com\/jamcams.tfl.gov.uk\/00001.03668.jpg","source":"jamcams-camera-list.xml"},{"id":"00001.03670","latitude":51.473,"longitude":-0.01659,"category_icon_url":"http:\/\/comroads.com\/images\/categories\/icon_44.png","category_hover_icon_url":"http:\/\/comroads.com\/images\/categories\/hover\/icon_44.png","title":"Blackheath Rd\/Wickes Store","url":"http:\/\/ar.comroads.com\/live-feed\/blackheath-rdwickes-store-0000103670","country_code":"GB","thumbnail_url":"https:\/\/s3-eu-west-1.amazonaws.com\/jamcams.tfl.gov.uk\/00001.03670.jpg","source":"jamcams-camera-list.xml"},{"id":"00001.03671","latitude":51.4728,"longitude":-0.01474,"category_icon_url":"http:\/\/comroads.com\/images\/categories\/icon_44.png","category_hover_icon_url":"http:\/\/comroads.com\/images\/categories\/hover\/icon_44.png","title":"A2 Blackheath Hill\/Plumbridge St","url":"http:\/\/ar.comroads.com\/live-feed\/a2-blackheath-hillplumbridge-st-0000103671","country_code":"GB","thumbnail_url":"https:\/\/s3-eu-west-1.amazonaws.com\/jamcams.tfl.gov.uk\/00001.03671.jpg","source":"jamcams-camera-list.xml"},{"id":"00001.03672","latitude":51.4778,"longitude":-0.05185,"category_icon_url":"http:\/\/comroads.com\/images\/categories\/icon_44.png","category_hover_icon_url":"http:\/\/comroads.com\/images\/categories\/hover\/icon_44.png","title":"A2 New Cross Rd\/Avonley Rd","url":"http:\/\/ar.comroads.com\/live-feed\/a2-new-cross-rdavonley-rd-0000103672","country_code":"GB","thumbnail_url":"https:\/\/s3-eu-west-1.amazonaws.com\/jamcams.tfl.gov.uk\/00001.03672.jpg","source":"jamcams-camera-list.xml"},{"id":"00001.03673","latitude":51.4745,"longitude":-0.04214,"category_icon_url":"http:\/\/comroads.com\/images\/categories\/icon_44.png","category_hover_icon_url":"http:\/\/comroads.com\/images\/categories\/hover\/icon_44.png","title":"A2 New Cross R\/Harts Ln","url":"http:\/\/ar.comroads.com\/live-feed\/a2-new-cross-rharts-ln-0000103673","country_code":"GB","thumbnail_url":"https:\/\/s3-eu-west-1.amazonaws.com\/jamcams.tfl.gov.uk\/00001.03673.jpg","source":"jamcams-camera-list.xml"},{"id":"00001.03674","latitude":51.4757,"longitude":-0.03625,"category_icon_url":"http:\/\/comroads.com\/images\/categories\/icon_44.png","category_hover_icon_url":"http:\/\/comroads.com\/images\/categories\/hover\/icon_44.png","title":"A2 New Cross Rd\/Lewisham Way","url":"http:\/\/ar.comroads.com\/live-feed\/a2-new-cross-rdlewisham-way-0000103674","country_code":"GB","thumbnail_url":"https:\/\/s3-eu-west-1.amazonaws.com\/jamcams.tfl.gov.uk\/00001.03674.jpg","source":"jamcams-camera-list.xml"},{"id":"00001.03675","latitude":51.4742,"longitude":-0.02073,"category_icon_url":"http:\/\/comroads.com\/images\/categories\/icon_44.png","category_hover_icon_url":"http:\/\/comroads.com\/images\/categories\/hover\/icon_44.png","title":"Blackheath Rd\/Greenwich High Rd","url":"http:\/\/ar.comroads.com\/live-feed\/blackheath-rdgreenwich-high-rd-0000103675","country_code":"GB","thumbnail_url":"https:\/\/s3-eu-west-1.amazonaws.com\/jamcams.tfl.gov.uk\/00001.03675.jpg","source":"jamcams-camera-list.xml"},{"id":"00001.03680","latitude":51.4719,"longitude":0.00024,"category_icon_url":"http:\/\/comroads.com\/images\/categories\/icon_44.png","category_hover_icon_url":"http:\/\/comroads.com\/images\/categories\/hover\/icon_44.png","title":"Shooters Hill Rd\/Charlton Way","url":"http:\/\/ar.comroads.com\/live-feed\/shooters-hill-rdcharlton-way-0000103680","country_code":"GB","thumbnail_url":"https:\/\/s3-eu-west-1.amazonaws.com\/jamcams.tfl.gov.uk\/00001.03680.jpg","source":"jamcams-camera-list.xml"},{"id":"00001.03700","latitude":51.4745,"longitude":-0.03458,"category_icon_url":"http:\/\/comroads.com\/images\/categories\/icon_44.png","category_hover_icon_url":"http:\/\/comroads.com\/images\/categories\/hover\/icon_44.png","title":"A20 Lewisham Way\/Parkfield Rd","url":"http:\/\/ar.comroads.com\/live-feed\/a20-lewisham-wayparkfield-rd-0000103700","country_code":"GB","thumbnail_url":"https:\/\/s3-eu-west-1.amazonaws.com\/jamcams.tfl.gov.uk\/00001.03700.jpg","source":"jamcams-camera-list.xml"},{"id":"00001.03701","latitude":51.4571,"longitude":0.00907,"category_icon_url":"http:\/\/comroads.com\/images\/categories\/icon_44.png","category_hover_icon_url":"http:\/\/comroads.com\/images\/categories\/hover\/icon_44.png","title":"ARNM Usage - A20 Lee High Rd\/Lampmead Rd","url":"http:\/\/ar.comroads.com\/live-feed\/arnm-usage-a20-lee-high-rdlampmead-rd-0000103701","country_code":"GB","thumbnail_url":"https:\/\/s3-eu-west-1.amazonaws.com\/jamcams.tfl.gov.uk\/00001.03701.jpg","source":"jamcams-camera-list.xml"},{"id":"00001.03702","latitude":51.4624,"longitude":-0.0089,"category_icon_url":"http:\/\/comroads.com\/images\/categories\/icon_44.png","category_hover_icon_url":"http:\/\/comroads.com\/images\/categories\/hover\/icon_44.png","title":"A20 Lee High Rd\/Belmont Hill","url":"http:\/\/ar.comroads.com\/live-feed\/a20-lee-high-rdbelmont-hill-0000103702","country_code":"GB","thumbnail_url":"https:\/\/s3-eu-west-1.amazonaws.com\/jamcams.tfl.gov.uk\/00001.03702.jpg","source":"jamcams-camera-list.xml"},{"id":"00001.03703","latitude":51.4598,"longitude":-0.00401,"category_icon_url":"http:\/\/comroads.com\/images\/categories\/icon_44.png","category_hover_icon_url":"http:\/\/comroads.com\/images\/categories\/hover\/icon_44.png","title":"A20 Lee High Rd\/Belmont Park","url":"http:\/\/ar.comroads.com\/live-feed\/a20-lee-high-rdbelmont-park-0000103703","country_code":"GB","thumbnail_url":"https:\/\/s3-eu-west-1.amazonaws.com\/jamcams.tfl.gov.uk\/00001.03703.jpg","source":"jamcams-camera-list.xml"},{"id":"00001.03704","latitude":51.4613,"longitude":-0.0059,"category_icon_url":"http:\/\/comroads.com\/images\/categories\/icon_44.png","category_hover_icon_url":"http:\/\/comroads.com\/images\/categories\/hover\/icon_44.png","title":"A20 Lee High Rd\/Marischal Rd","url":"http:\/\/ar.comroads.com\/live-feed\/a20-lee-high-rdmarischal-rd-0000103704","country_code":"GB","thumbnail_url":"https:\/\/s3-eu-west-1.amazonaws.com\/jamcams.tfl.gov.uk\/00001.03704.jpg","source":"jamcams-camera-list.xml"},{"id":"00001.03705","latitude":51.4722,"longitude":-0.03114,"category_icon_url":"http:\/\/comroads.com\/images\/categories\/icon_44.png","category_hover_icon_url":"http:\/\/comroads.com\/images\/categories\/hover\/icon_44.png","title":"Lewisham Way\/Florence Road","url":"http:\/\/ar.comroads.com\/live-feed\/lewisham-wayflorence-road-0000103705","country_code":"GB","thumbnail_url":"https:\/\/s3-eu-west-1.amazonaws.com\/jamcams.tfl.gov.uk\/00001.03705.jpg","source":"jamcams-camera-list.xml"},{"id":"00001.03706","latitude":51.4645,"longitude":-0.01522,"category_icon_url":"http:\/\/comroads.com\/images\/categories\/icon_44.png","category_hover_icon_url":"http:\/\/comroads.com\/images\/categories\/hover\/icon_44.png","title":"Loampit Vale\/Thurston Rd","url":"http:\/\/ar.comroads.com\/live-feed\/loampit-valethurston-rd-0000103706","country_code":"GB","thumbnail_url":"https:\/\/s3-eu-west-1.amazonaws.com\/jamcams.tfl.gov.uk\/00001.03706.jpg","source":"jamcams-camera-list.xml"},