[{"id":"0000102151","lat":51.5421,"lng":0.00524,"icon":44,"title":"Romford Rd \/ Tennyson Rd","url":"http:\/\/www.comroads.com\/live-feed\/romford-rd-tennyson-rd-0000102151","cc":"GB","tu":"https:\/\/s3-eu-west-1.amazonaws.com\/jamcams.tfl.gov.uk\/00001.02151.jpg?1472110141","source":"jamcams-camera-list.xml","refresh":true,"refresh_seconds":10,"type":"live-feed"},{"id":"0000107450","lat":51.5096,"lng":-0.13484,"icon":44,"title":"Piccadilly Circus","url":"http:\/\/www.comroads.com\/live-feed\/piccadilly-circus-0000107450","cc":"GB","tu":"https:\/\/s3-eu-west-1.amazonaws.com\/jamcams.tfl.gov.uk\/00001.07450.jpg?1472110141","source":"jamcams-camera-list.xml","refresh":true,"refresh_seconds":10,"type":"live-feed"},{"id":"0000103675","lat":51.4742,"lng":-0.02073,"icon":44,"title":"Blackheath Rd\/Greenwich High Rd","url":"http:\/\/www.comroads.com\/live-feed\/blackheath-rdgreenwich-high-rd-0000103675","cc":"GB","tu":"https:\/\/s3-eu-west-1.amazonaws.com\/jamcams.tfl.gov.uk\/00001.03675.jpg?1472110141","source":"jamcams-camera-list.xml","refresh":true,"refresh_seconds":10,"type":"live-feed"},{"id":"0000106600","lat":51.4946,"lng":-0.1957,"icon":44,"title":"Cromwell Rd\/Earls Court Rd","url":"http:\/\/www.comroads.com\/live-feed\/cromwell-rdearls-court-rd-0000106600","cc":"GB","tu":"https:\/\/s3-eu-west-1.amazonaws.com\/jamcams.tfl.gov.uk\/00001.06600.jpg?1472110141","source":"jamcams-camera-list.xml","refresh":true,"refresh_seconds":10,"type":"live-feed"},{"id":"0000108858","lat":51.514,"lng":-0.15409,"icon":44,"title":"Oxford St\/Orchard St","url":"http:\/\/www.comroads.com\/live-feed\/oxford-storchard-st-0000108858","cc":"GB","tu":"https:\/\/s3-eu-west-1.amazonaws.com\/jamcams.tfl.gov.uk\/00001.08858.jpg?1472110141","source":"jamcams-camera-list.xml","refresh":true,"refresh_seconds":10,"type":"live-feed"},{"id":"0000103758","lat":51.441,"lng":-0.10633,"icon":44,"title":"A205 Tulse Hill\/ Thurlow Park Rd","url":"http:\/\/www.comroads.com\/live-feed\/a205-tulse-hill-thurlow-park-rd-0000103758","cc":"GB","tu":"https:\/\/s3-eu-west-1.amazonaws.com\/jamcams.tfl.gov.uk\/00001.03758.jpg?1472110141","source":"jamcams-camera-list.xml","refresh":true,"refresh_seconds":10,"type":"live-feed"},{"id":"0000104235","lat":51.4949,"lng":-0.12891,"icon":44,"title":"Horseferry Rd\/Marsham St","url":"http:\/\/www.comroads.com\/live-feed\/horseferry-rdmarsham-st-0000104235","cc":"GB","tu":"https:\/\/s3-eu-west-1.amazonaws.com\/jamcams.tfl.gov.uk\/00001.04235.jpg?1472110141","source":"jamcams-camera-list.xml","refresh":true,"refresh_seconds":10,"type":"live-feed"},{"id":"0000104353","lat":51.3741,"lng":-0.09643,"icon":44,"title":"George St\/Wellesley Rd","url":"http:\/\/www.comroads.com\/live-feed\/george-stwellesley-rd-0000104353","cc":"GB","tu":"https:\/\/s3-eu-west-1.amazonaws.com\/jamcams.tfl.gov.uk\/00001.04353.jpg?1472110141","source":"jamcams-camera-list.xml","refresh":true,"refresh_seconds":10,"type":"live-feed"},{"id":"0000200635","lat":51.5119,"lng":0.18383,"icon":44,"title":"Ferry Lane","url":"http:\/\/www.comroads.com\/live-feed\/ferry-lane-0000200635","cc":"GB","tu":"https:\/\/s3-eu-west-1.amazonaws.com\/jamcams.tfl.gov.uk\/00002.00635.jpg?1472110141","source":"jamcams-camera-list.xml","refresh":true,"refresh_seconds":10,"type":"live-feed"},{"id":"0000104568","lat":51.3456,"lng":-0.11434,"icon":44,"title":"A23 Purley Way\/Edgehill Rd","url":"http:\/\/www.comroads.com\/live-feed\/a23-purley-wayedgehill-rd-0000104568","cc":"GB","tu":"https:\/\/s3-eu-west-1.amazonaws.com\/jamcams.tfl.gov.uk\/00001.04568.jpg?1472110141","source":"jamcams-camera-list.xml","refresh":true,"refresh_seconds":10,"type":"live-feed"},{"id":"0000107929","lat":51.5613,"lng":-0.20345,"icon":44,"title":"A41 Hendon Way\/Cricklewood Lane","url":"http:\/\/www.comroads.com\/live-feed\/a41-hendon-waycricklewood-lane-0000107929","cc":"GB","tu":"https:\/\/s3-eu-west-1.amazonaws.com\/jamcams.tfl.gov.uk\/00001.07929.jpg?1472110141","source":"jamcams-camera-list.xml","refresh":true,"refresh_seconds":10,"type":"live-feed"},{"id":"0000106649","lat":51.5021,"lng":-0.22886,"icon":44,"title":"Goldhawk Rd\/HSmith Grove","url":"http:\/\/www.comroads.com\/live-feed\/goldhawk-rdhsmith-grove-0000106649","cc":"GB","tu":"https:\/\/s3-eu-west-1.amazonaws.com\/jamcams.tfl.gov.uk\/00001.06649.jpg?1472110141","source":"jamcams-camera-list.xml","refresh":true,"refresh_seconds":10,"type":"live-feed"},{"id":"0000101612","lat":51.5516,"lng":-0.0208,"icon":44,"title":"Eastway\/Lee Interchange","url":"http:\/\/www.comroads.com\/live-feed\/eastwaylee-interchange-0000101612","cc":"GB","tu":"https:\/\/s3-eu-west-1.amazonaws.com\/jamcams.tfl.gov.uk\/00001.01612.jpg?1472110141","source":"jamcams-camera-list.xml","refresh":true,"refresh_seconds":10,"type":"live-feed"},{"id":"0000103762","lat":51.4452,"lng":-0.12418,"icon":44,"title":"A205 Christchurch Rd\/A23 Brixton H","url":"http:\/\/www.comroads.com\/live-feed\/a205-christchurch-rda23-brixton-h-0000103762","cc":"GB","tu":"https:\/\/s3-eu-west-1.amazonaws.com\/jamcams.tfl.gov.uk\/00001.03762.jpg?1472110141","source":"jamcams-camera-list.xml","refresh":true,"refresh_seconds":10,"type":"live-feed"},{"id":"0000106519","lat":51.4972,"lng":-0.14465,"icon":44,"title":"Buckingham Palace Rd\/Eaton Lane","url":"http:\/\/www.comroads.com\/live-feed\/buckingham-palace-rdeaton-lane-0000106519","cc":"GB","tu":"https:\/\/s3-eu-west-1.amazonaws.com\/jamcams.tfl.gov.uk\/00001.06519.jpg?1472110141","source":"jamcams-camera-list.xml","refresh":true,"refresh_seconds":10,"type":"live-feed"},{"id":"0000104214","lat":51.5048,"lng":-0.09535,"icon":44,"title":"Southwark St\/Southwark Bdge Rd","url":"http:\/\/www.comroads.com\/live-feed\/southwark-stsouthwark-bdge-rd-0000104214","cc":"GB","tu":"https:\/\/s3-eu-west-1.amazonaws.com\/jamcams.tfl.gov.uk\/00001.04214.jpg?1472110141","source":"jamcams-camera-list.xml","refresh":true,"refresh_seconds":10,"type":"live-feed"},{"id":"0000104653","lat":51.424,"lng":-0.17185,"icon":44,"title":"A24 South of Trevelyan Rd","url":"http:\/\/www.comroads.com\/live-feed\/a24-south-of-trevelyan-rd-0000104653","cc":"GB","tu":"https:\/\/s3-eu-west-1.amazonaws.com\/jamcams.tfl.gov.uk\/00001.04653.jpg?1472110141","source":"jamcams-camera-list.xml","refresh":true,"refresh_seconds":10,"type":"live-feed"},{"id":"0000106511","lat":51.4963,"lng":-0.14243,"icon":44,"title":"Victoria St\/Wilton Rd","url":"http:\/\/www.comroads.com\/live-feed\/victoria-stwilton-rd-0000106511","cc":"GB","tu":"https:\/\/s3-eu-west-1.amazonaws.com\/jamcams.tfl.gov.uk\/00001.06511.jpg?1472110141","source":"jamcams-camera-list.xml","refresh":true,"refresh_seconds":10,"type":"live-feed"},{"id":"0000104565","lat":51.3672,"lng":-0.11608,"icon":44,"title":"Stafford Rd\/Epsom Rd","url":"http:\/\/www.comroads.com\/live-feed\/stafford-rdepsom-rd-0000104565","cc":"GB","tu":"https:\/\/s3-eu-west-1.amazonaws.com\/jamcams.tfl.gov.uk\/00001.04565.jpg?1472110141","source":"jamcams-camera-list.xml","refresh":true,"refresh_seconds":10,"type":"live-feed"},{"id":"0000104331","lat":51.483,"lng":-0.11601,"icon":44,"title":"Kennington Oval","url":"http:\/\/www.comroads.com\/live-feed\/kennington-oval-0000104331","cc":"GB","tu":"https:\/\/s3-eu-west-1.amazonaws.com\/jamcams.tfl.gov.uk\/00001.04331.jpg?1472110141","source":"jamcams-camera-list.xml","refresh":true,"refresh_seconds":10,"type":"live-feed"},{"id":"0000102150","lat":51.5393,"lng":-0.00055,"icon":44,"title":"Stratford Broadway\/Gt Eastern Rd","url":"http:\/\/www.comroads.com\/live-feed\/stratford-broadwaygt-eastern-rd-0000102150","cc":"GB","tu":"https:\/\/s3-eu-west-1.amazonaws.com\/jamcams.tfl.gov.uk\/00001.02150.jpg?1472110141","source":"jamcams-camera-list.xml","refresh":true,"refresh_seconds":10,"type":"live-feed"},{"id":"0000200268","lat":51.458,"lng":0.08007,"icon":44,"title":"A2 Riefld\/Rochstr","url":"http:\/\/www.comroads.com\/live-feed\/a2-riefldrochstr-0000200268","cc":"GB","tu":"https:\/\/s3-eu-west-1.amazonaws.com\/jamcams.tfl.gov.uk\/00002.00268.jpg?1472110141","source":"jamcams-camera-list.xml","refresh":true,"refresh_seconds":10,"type":"live-feed"},{"id":"0000109702","lat":51.5319,"lng":-0.10642,"icon":44,"title":"Angel Islington","url":"http:\/\/www.comroads.com\/live-feed\/angel-islington-0000109702","cc":"GB","tu":"https:\/\/s3-eu-west-1.amazonaws.com\/jamcams.tfl.gov.uk\/00001.09702.jpg?1472110141","source":"jamcams-camera-list.xml","refresh":true,"refresh_seconds":10,"type":"live-feed"},{"id":"0000103600","lat":51.5232,"lng":-0.10792,"icon":44,"title":"Farringdon Rd opp Ray St","url":"http:\/\/www.comroads.com\/live-feed\/farringdon-rd-opp-ray-st-0000103600","cc":"GB","tu":"https:\/\/s3-eu-west-1.amazonaws.com\/jamcams.tfl.gov.uk\/00001.03600.jpg?1472110141","source":"jamcams-camera-list.xml","refresh":true,"refresh_seconds":10,"type":"live-feed"},{"id":"0000106602","lat":51.4907,"lng":-0.20696,"icon":44,"title":"North End Rd\/Talgarth Rd","url":"http:\/\/www.comroads.com\/live-feed\/north-end-rdtalgarth-rd-0000106602","cc":"GB","tu":"https:\/\/s3-eu-west-1.amazonaws.com\/jamcams.tfl.gov.uk\/00001.06602.jpg?1472110141","source":"jamcams-camera-list.xml","refresh":true,"refresh_seconds":10,"type":"live-feed"},{"id":"0000104407","lat":51.3324,"lng":-0.12398,"icon":44,"title":"Brighton Road","url":"http:\/\/www.comroads.com\/live-feed\/brighton-road-0000104407","cc":"GB","tu":"https:\/\/s3-eu-west-1.amazonaws.com\/jamcams.tfl.gov.uk\/00001.04407.jpg?1472110141","source":"jamcams-camera-list.xml","refresh":true,"refresh_seconds":10,"type":"live-feed"},{"id":"0000106580","lat":51.4896,"lng":-0.19005,"icon":44,"title":"Old Brompton Rd \/ Earls Court Rd","url":"http:\/\/www.comroads.com\/live-feed\/old-brompton-rd-earls-court-rd-0000106580","cc":"GB","tu":"https:\/\/s3-eu-west-1.amazonaws.com\/jamcams.tfl.gov.uk\/00001.06580.jpg?1472110141","source":"jamcams-camera-list.xml","refresh":true,"refresh_seconds":10,"type":"live-feed"},{"id":"0000101429","lat":51.6799,"lng":-0.05135,"icon":44,"title":"Grt Cambridge Rd\/Bullsmore Ln","url":"http:\/\/www.comroads.com\/live-feed\/grt-cambridge-rdbullsmore-ln-0000101429","cc":"GB","tu":"https:\/\/s3-eu-west-1.amazonaws.com\/jamcams.tfl.gov.uk\/00001.01429.jpg?1472110141","source":"jamcams-camera-list.xml","refresh":true,"refresh_seconds":10,"type":"live-feed"},{"id":"0000103751","lat":51.4459,"lng":-0.01723,"icon":44,"title":"A205 Brownhill Rd\/Plassey Rd","url":"http:\/\/www.comroads.com\/live-feed\/a205-brownhill-rdplassey-rd-0000103751","cc":"GB","tu":"https:\/\/s3-eu-west-1.amazonaws.com\/jamcams.tfl.gov.uk\/00001.03751.jpg?1472110141","source":"jamcams-camera-list.xml","refresh":true,"refresh_seconds":10,"type":"live-feed"},{"id":"0000106718","lat":51.465,"lng":-0.25896,"icon":44,"title":"A205 Upper Rmond Rd\/Queens Rd","url":"http:\/\/www.comroads.com\/live-feed\/a205-upper-rmond-rdqueens-rd-0000106718","cc":"GB","tu":"https:\/\/s3-eu-west-1.amazonaws.com\/jamcams.tfl.gov.uk\/00001.06718.jpg?1472110141","source":"jamcams-camera-list.xml","refresh":true,"refresh_seconds":10,"type":"live-feed"},{"id":"0000105825","lat":51.4659,"lng":-0.21409,"icon":44,"title":"Putney High St\/Lwr Richmond Rd","url":"http:\/\/www.comroads.com\/live-feed\/putney-high-stlwr-richmond-rd-0000105825","cc":"GB","tu":"https:\/\/s3-eu-west-1.amazonaws.com\/jamcams.tfl.gov.uk\/00001.05825.jpg?1472110141","source":"jamcams-camera-list.xml","refresh":true,"refresh_seconds":10,"type":"live-feed"},{"id":"0000101601","lat":51.5526,"lng":-0.05272,"icon":44,"title":"Lwr Clapton\/Powerscroft","url":"http:\/\/www.comroads.com\/live-feed\/lwr-claptonpowerscroft-0000101601","cc":"GB","tu":"https:\/\/s3-eu-west-1.amazonaws.com\/jamcams.tfl.gov.uk\/00001.01601.jpg?1472110141","source":"jamcams-camera-list.xml","refresh":true,"refresh_seconds":10,"type":"live-feed"},{"id":"0000106708","lat":51.4634,"lng":-0.22988,"icon":44,"title":"Upper Richmond Rd\/Colinette Rd","url":"http:\/\/www.comroads.com\/live-feed\/upper-richmond-rdcolinette-rd-0000106708","cc":"GB","tu":"https:\/\/s3-eu-west-1.amazonaws.com\/jamcams.tfl.gov.uk\/00001.06708.jpg?1472110141","source":"jamcams-camera-list.xml","refresh":true,"refresh_seconds":10,"type":"live-feed"},{"id":"0000104546","lat":51.4372,"lng":-0.15762,"icon":44,"title":"Balham High Rd\/Drakefield Rd","url":"http:\/\/www.comroads.com\/live-feed\/balham-high-rddrakefield-rd-0000104546","cc":"GB","tu":"https:\/\/s3-eu-west-1.amazonaws.com\/jamcams.tfl.gov.uk\/00001.04546.jpg?1472110141","source":"jamcams-camera-list.xml","refresh":true,"refresh_seconds":10,"type":"live-feed"},{"id":"0000106692","lat":51.511,"lng":-0.36935,"icon":44,"title":"Uxbridge Rd\/Park View Rd","url":"http:\/\/www.comroads.com\/live-feed\/uxbridge-rdpark-view-rd-0000106692","cc":"GB","tu":"https:\/\/s3-eu-west-1.amazonaws.com\/jamcams.tfl.gov.uk\/00001.06692.jpg?1472110141","source":"jamcams-camera-list.xml","refresh":true,"refresh_seconds":10,"type":"live-feed"},{"id":"0000104649","lat":51.4422,"lng":-0.15409,"icon":44,"title":"Balham High Rd\/Balham Pk Rd","url":"http:\/\/www.comroads.com\/live-feed\/balham-high-rdbalham-pk-rd-0000104649","cc":"GB","tu":"https:\/\/s3-eu-west-1.amazonaws.com\/jamcams.tfl.gov.uk\/00001.04649.jpg?1472110141","source":"jamcams-camera-list.xml","refresh":true,"refresh_seconds":10,"type":"live-feed"},{"id":"0000106506","lat":51.4814,"lng":-0.451,"icon":44,"title":"A4 west of Sipson Road","url":"http:\/\/www.comroads.com\/live-feed\/a4-west-of-sipson-road-0000106506","cc":"GB","tu":"https:\/\/s3-eu-west-1.amazonaws.com\/jamcams.tfl.gov.uk\/00001.06506.jpg?1472110141","source":"jamcams-camera-list.xml","refresh":true,"refresh_seconds":10,"type":"live-feed"},{"id":"0000109609","lat":51.568,"lng":-0.09933,"icon":44,"title":"Seven Sisters Rd\/Alexandria Grove","url":"http:\/\/www.comroads.com\/live-feed\/seven-sisters-rdalexandria-grove-0000109609","cc":"GB","tu":"https:\/\/s3-eu-west-1.amazonaws.com\/jamcams.tfl.gov.uk\/00001.09609.jpg?1472110141","source":"jamcams-camera-list.xml","refresh":true,"refresh_seconds":10,"type":"live-feed"},{"id":"0000200823","lat":51.559,"lng":-0.00218,"icon":44,"title":"A12 Colville R 3732A","url":"http:\/\/www.comroads.com\/live-feed\/a12-colville-r-3732a-0000200823","cc":"GB","tu":"https:\/\/s3-eu-west-1.amazonaws.com\/jamcams.tfl.gov.uk\/00002.00823.jpg?1472110141","source":"jamcams-camera-list.xml","refresh":true,"refresh_seconds":10,"type":"live-feed"},{"id":"0000104564","lat":51.368,"lng":-0.11885,"icon":44,"title":"Purley Way\/Croydon Road","url":"http:\/\/www.comroads.com\/live-feed\/purley-waycroydon-road-0000104564","cc":"GB","tu":"https:\/\/s3-eu-west-1.amazonaws.com\/jamcams.tfl.gov.uk\/00001.04564.jpg?1472110141","source":"jamcams-camera-list.xml","refresh":true,"refresh_seconds":10,"type":"live-feed"},{"id":"0000108861","lat":51.5243,"lng":-0.17652,"icon":44,"title":"Edgeware Rd\/Madia Ave","url":"http:\/\/www.comroads.com\/live-feed\/edgeware-rdmadia-ave-0000108861","cc":"GB","tu":"https:\/\/s3-eu-west-1.amazonaws.com\/jamcams.tfl.gov.uk\/00001.08861.jpg?1472110141","source":"jamcams-camera-list.xml","refresh":true,"refresh_seconds":10,"type":"live-feed"},{"id":"0000101401","lat":51.5239,"lng":-0.07727,"icon":44,"title":"A10 North of Holywell Ln","url":"http:\/\/www.comroads.com\/live-feed\/a10-north-of-holywell-ln-0000101401","cc":"GB","tu":"https:\/\/s3-eu-west-1.amazonaws.com\/jamcams.tfl.gov.uk\/00001.01401.jpg?1472110141","source":"jamcams-camera-list.xml","refresh":true,"refresh_seconds":10,"type":"live-feed"},{"id":"0000102110","lat":51.5271,"lng":-0.0255,"icon":44,"title":"Bow Rd\/Alfred St","url":"http:\/\/www.comroads.com\/live-feed\/bow-rdalfred-st-0000102110","cc":"GB","tu":"https:\/\/s3-eu-west-1.amazonaws.com\/jamcams.tfl.gov.uk\/00001.02110.jpg?1472110141","source":"jamcams-camera-list.xml","refresh":true,"refresh_seconds":10,"type":"live-feed"},{"id":"0000102310","lat":51.5049,"lng":0.03964,"icon":44,"title":"Connaught Bridge\/Connaught Rd","url":"http:\/\/www.comroads.com\/live-feed\/connaught-bridgeconnaught-rd-0000102310","cc":"GB","tu":"https:\/\/s3-eu-west-1.amazonaws.com\/jamcams.tfl.gov.uk\/00001.02310.jpg?1472110141","source":"jamcams-camera-list.xml","refresh":true,"refresh_seconds":10,"type":"live-feed"},{"id":"0000109650","lat":51.5328,"lng":-0.107,"icon":44,"title":"White Lion St \/ Upper St","url":"http:\/\/www.comroads.com\/live-feed\/white-lion-st-upper-st-0000109650","cc":"GB","tu":"https:\/\/s3-eu-west-1.amazonaws.com\/jamcams.tfl.gov.uk\/00001.09650.jpg?1472110141","source":"jamcams-camera-list.xml","refresh":true,"refresh_seconds":10,"type":"live-feed"},{"id":"0000109078","lat":51.6145,"lng":-0.06816,"icon":44,"title":"Sterling Way Slip\/Victoria St","url":"http:\/\/www.comroads.com\/live-feed\/sterling-way-slipvictoria-st-0000109078","cc":"GB","tu":"https:\/\/s3-eu-west-1.amazonaws.com\/jamcams.tfl.gov.uk\/00001.09078.jpg?1472110141","source":"jamcams-camera-list.xml","refresh":true,"refresh_seconds":10,"type":"live-feed"},{"id":"0000103815","lat":51.4371,"lng":-0.0185,"icon":44,"title":"A21 Bromley Rd\/Newquay Rd","url":"http:\/\/www.comroads.com\/live-feed\/a21-bromley-rdnewquay-rd-0000103815","cc":"GB","tu":"https:\/\/s3-eu-west-1.amazonaws.com\/jamcams.tfl.gov.uk\/00001.03815.jpg?1472110141","source":"jamcams-camera-list.xml","refresh":true,"refresh_seconds":10,"type":"live-feed"},{"id":"0000104612","lat":51.4761,"lng":-0.1187,"icon":44,"title":"A3 Clapham Rd\/Albert Square","url":"http:\/\/www.comroads.com\/live-feed\/a3-clapham-rdalbert-square-0000104612","cc":"GB","tu":"https:\/\/s3-eu-west-1.amazonaws.com\/jamcams.tfl.gov.uk\/00001.04612.jpg?1472110141","source":"jamcams-camera-list.xml","refresh":true,"refresh_seconds":10,"type":"live-feed"},{"id":"0000109800","lat":51.5883,"lng":-0.06344,"icon":44,"title":"Tottenham Broad Lane\/The Hale","url":"http:\/\/www.comroads.com\/live-feed\/tottenham-broad-lanethe-hale-0000109800","cc":"GB","tu":"https:\/\/s3-eu-west-1.amazonaws.com\/jamcams.tfl.gov.uk\/00001.09800.jpg?1472110141","source":"jamcams-camera-list.xml","refresh":true,"refresh_seconds":10,"type":"live-feed"},{"id":"0000104634","lat":51.4723,"lng":-0.16512,"icon":44,"title":"Battersea Pk Rd\/Battersea Brg","url":"http:\/\/www.comroads.com\/live-feed\/battersea-pk-rdbattersea-brg-0000104634","cc":"GB","tu":"https:\/\/s3-eu-west-1.amazonaws.com\/jamcams.tfl.gov.uk\/00001.04634.jpg?1472110141","source":"jamcams-camera-list.xml","refresh":true,"refresh_seconds":10,"type":"live-feed"},{"id":"0000106584","lat":51.4811,"lng":-0.18307,"icon":44,"title":"Tadema Rd Sth Kings Rd","url":"http:\/\/www.comroads.com\/live-feed\/tadema-rd-sth-kings-rd-0000106584","cc":"GB","tu":"https:\/\/s3-eu-west-1.amazonaws.com\/jamcams.tfl.gov.uk\/00001.06584.jpg?1472110141","source":"jamcams-camera-list.xml","refresh":true,"refresh_seconds":10,"type":"live-feed"},{"id":"0000101441","lat":51.5702,"lng":-0.07297,"icon":44,"title":"Stamford Hill\/Dunsmure Road","url":"http:\/\/www.comroads.com\/live-feed\/stamford-hilldunsmure-road-0000101441","cc":"GB","tu":"https:\/\/s3-eu-west-1.amazonaws.com\/jamcams.tfl.gov.uk\/00001.01441.jpg?1472110141","source":"jamcams-camera-list.xml","refresh":true,"refresh_seconds":10,"type":"live-feed"},{"id":"0000106611","lat":51.4833,"lng":-0.32614,"icon":44,"title":"A4 Great W Rd\/Syon Ln","url":"http:\/\/www.comroads.com\/live-feed\/a4-great-w-rdsyon-ln-0000106611","cc":"GB","tu":"https:\/\/s3-eu-west-1.amazonaws.com\/jamcams.tfl.gov.uk\/00001.06611.jpg?1472110141","source":"jamcams-camera-list.xml","refresh":true,"refresh_seconds":10,"type":"live-feed"},{"id":"0000107927","lat":51.5568,"lng":-0.21557,"icon":44,"title":"A5 Cricklewood Broadway","url":"http:\/\/www.comroads.com\/live-feed\/a5-cricklewood-broadway-0000107927","cc":"GB","tu":"https:\/\/s3-eu-west-1.amazonaws.com\/jamcams.tfl.gov.uk\/00001.07927.jpg?1472110141","source":"jamcams-camera-list.xml","refresh":true,"refresh_seconds":10,"type":"live-feed"},{"id":"0000104328","lat":51.4897,"lng":-0.13145,"icon":44,"title":"Vauxhall Brd Rd\/Drummond Gt","url":"http:\/\/www.comroads.com\/live-feed\/vauxhall-brd-rddrummond-gt-0000104328","cc":"GB","tu":"https:\/\/s3-eu-west-1.amazonaws.com\/jamcams.tfl.gov.uk\/00001.04328.jpg?1472110141","source":"jamcams-camera-list.xml","refresh":true,"refresh_seconds":10,"type":"live-feed"},{"id":"0000109616","lat":51.5798,"lng":-0.07978,"icon":44,"title":"Seven Sisters Rd\/St Ann","url":"http:\/\/www.comroads.com\/live-feed\/seven-sisters-rdst-ann-0000109616","cc":"GB","tu":"https:\/\/s3-eu-west-1.amazonaws.com\/jamcams.tfl.gov.uk\/00001.09616.jpg?1472110141","source":"jamcams-camera-list.xml","refresh":true,"refresh_seconds":10,"type":"live-feed"},{"id":"0000106948","lat":51.4839,"lng":-0.49248,"icon":44,"title":"A4 Colnbrook\/Stanwell Moor Rd","url":"http:\/\/www.comroads.com\/live-feed\/a4-colnbrookstanwell-moor-rd-0000106948","cc":"GB","tu":"https:\/\/s3-eu-west-1.amazonaws.com\/jamcams.tfl.gov.uk\/00001.06948.jpg?1472110141","source":"jamcams-camera-list.xml","refresh":true,"refresh_seconds":10,"type":"live-feed"},{"id":"0000108008","lat":51.5006,"lng":-0.2843,"icon":44,"title":"A406 Gunnersbury Ave\/Gunnersbury Ln","url":"http:\/\/www.comroads.com\/live-feed\/a406-gunnersbury-avegunnersbury-ln-0000108008","cc":"GB","tu":"https:\/\/s3-eu-west-1.amazonaws.com\/jamcams.tfl.gov.uk\/00001.08008.jpg?1472110141","source":"jamcams-camera-list.xml","refresh":true,"refresh_seconds":10,"type":"live-feed"},{"id":"0000103654","lat":51.4861,"lng":-0.07211,"icon":44,"title":"Old Kent Rd\/Glengall Rd","url":"http:\/\/www.comroads.com\/live-feed\/old-kent-rdglengall-rd-0000103654","cc":"GB","tu":"https:\/\/s3-eu-west-1.amazonaws.com\/jamcams.tfl.gov.uk\/00001.03654.jpg?1472110141","source":"jamcams-camera-list.xml","refresh":true,"refresh_seconds":10,"type":"live-feed"},{"id":"0000101438","lat":51.5571,"lng":-0.07466,"icon":44,"title":"Stoke Newington Rd\/Evering Rd","url":"http:\/\/www.comroads.com\/live-feed\/stoke-newington-rdevering-rd-0000101438","cc":"GB","tu":"https:\/\/s3-eu-west-1.amazonaws.com\/jamcams.tfl.gov.uk\/00001.01438.jpg?1472110141","source":"jamcams-camera-list.xml","refresh":true,"refresh_seconds":10,"type":"live-feed"},{"id":"0000200853","lat":51.5845,"lng":0.0397,"icon":44,"title":"M11\/A406 N\/Bnd 109A","url":"http:\/\/www.comroads.com\/live-feed\/m11a406-nbnd-109a-0000200853","cc":"GB","tu":"https:\/\/s3-eu-west-1.amazonaws.com\/jamcams.tfl.gov.uk\/00002.00853.jpg?1472110141","source":"jamcams-camera-list.xml","refresh":true,"refresh_seconds":10,"type":"live-feed"},{"id":"0000101606","lat":51.5482,"lng":-0.04448,"icon":44,"title":"Homerton High St\/Digby Road","url":"http:\/\/www.comroads.com\/live-feed\/homerton-high-stdigby-road-0000101606","cc":"GB","tu":"https:\/\/s3-eu-west-1.amazonaws.com\/jamcams.tfl.gov.uk\/00001.01606.jpg?1472110141","source":"jamcams-camera-list.xml","refresh":true,"refresh_seconds":10,"type":"live-feed"},{"id":"0000109711","lat":51.5579,"lng":-0.11958,"icon":44,"title":"Seven Sisters Rd\/Holloway Rd","url":"http:\/\/www.comroads.com\/live-feed\/seven-sisters-rdholloway-rd-0000109711","cc":"GB","tu":"https:\/\/s3-eu-west-1.amazonaws.com\/jamcams.tfl.gov.uk\/00001.09711.jpg?1472110141","source":"jamcams-camera-list.xml","refresh":true,"refresh_seconds":10,"type":"live-feed"},{"id":"0000104560","lat":51.3916,"lng":-0.11798,"icon":44,"title":"Thornton Rd\/Broughton Rd","url":"http:\/\/www.comroads.com\/live-feed\/thornton-rdbroughton-rd-0000104560","cc":"GB","tu":"https:\/\/s3-eu-west-1.amazonaws.com\/jamcams.tfl.gov.uk\/00001.04560.jpg?1472110141","source":"jamcams-camera-list.xml","refresh":true,"refresh_seconds":10,"type":"live-feed"},{"id":"0000104530","lat":51.4344,"lng":-0.12845,"icon":44,"title":"A23 Streatham H Rd\/Kingscourt Rd","url":"http:\/\/www.comroads.com\/live-feed\/a23-streatham-h-rdkingscourt-rd-0000104530","cc":"GB","tu":"https:\/\/s3-eu-west-1.amazonaws.com\/jamcams.tfl.gov.uk\/00001.04530.jpg?1472110141","source":"jamcams-camera-list.xml","refresh":true,"refresh_seconds":10,"type":"live-feed"},{"id":"0000107357","lat":51.5291,"lng":-0.12666,"icon":44,"title":"A501 West of Judd Street","url":"http:\/\/www.comroads.com\/live-feed\/a501-west-of-judd-street-0000107357","cc":"GB","tu":"https:\/\/s3-eu-west-1.amazonaws.com\/jamcams.tfl.gov.uk\/00001.07357.jpg?1472110141","source":"jamcams-camera-list.xml","refresh":true,"refresh_seconds":10,"type":"live-feed"},{"id":"0000102500","lat":51.5107,"lng":-0.11512,"icon":44,"title":"Victoria Embkmt\/Temple Place","url":"http:\/\/www.comroads.com\/live-feed\/victoria-embkmttemple-place-0000102500","cc":"GB","tu":"https:\/\/s3-eu-west-1.amazonaws.com\/jamcams.tfl.gov.uk\/00001.02500.jpg?1472110141","source":"jamcams-camera-list.xml","refresh":true,"refresh_seconds":10,"type":"live-feed"},{"id":"0000109061","lat":51.6151,"lng":-0.12769,"icon":44,"title":"A406\/Telford Rd\/Bowes Rd","url":"http:\/\/www.comroads.com\/live-feed\/a406telford-rdbowes-rd-0000109061","cc":"GB","tu":"https:\/\/s3-eu-west-1.amazonaws.com\/jamcams.tfl.gov.uk\/00001.09061.jpg?1472110141","source":"jamcams-camera-list.xml","refresh":true,"refresh_seconds":10,"type":"live-feed"},{"id":"0000200618","lat":51.5141,"lng":0.00238,"icon":44,"title":"EIDT East Ramp","url":"http:\/\/www.comroads.com\/live-feed\/eidt-east-ramp-0000200618","cc":"GB","tu":"https:\/\/s3-eu-west-1.amazonaws.com\/jamcams.tfl.gov.uk\/00002.00618.jpg?1472110141","source":"jamcams-camera-list.xml","refresh":true,"refresh_seconds":10,"type":"live-feed"},{"id":"0000109742","lat":51.6019,"lng":-0.23509,"icon":44,"title":"Watford Way\/Great North Way","url":"http:\/\/www.comroads.com\/live-feed\/watford-waygreat-north-way-0000109742","cc":"GB","tu":"https:\/\/s3-eu-west-1.amazonaws.com\/jamcams.tfl.gov.uk\/00001.09742.jpg?1472110141","source":"jamcams-camera-list.xml","refresh":true,"refresh_seconds":10,"type":"live-feed"},{"id":"0000101432","lat":51.557,"lng":-0.05594,"icon":44,"title":"Lr Clapton Rd\/Thislewaite Rd","url":"http:\/\/www.comroads.com\/live-feed\/lr-clapton-rdthislewaite-rd-0000101432","cc":"GB","tu":"https:\/\/s3-eu-west-1.amazonaws.com\/jamcams.tfl.gov.uk\/00001.01432.jpg?1472110141","source":"jamcams-camera-list.xml","refresh":true,"refresh_seconds":10,"type":"live-feed"},{"id":"0000104150","lat":51.335,"lng":-0.11268,"icon":44,"title":"A22 Godstone Rd\/Dale Rd","url":"http:\/\/www.comroads.com\/live-feed\/a22-godstone-rddale-rd-0000104150","cc":"GB","tu":"https:\/\/s3-eu-west-1.amazonaws.com\/jamcams.tfl.gov.uk\/00001.04150.jpg?1472110141","source":"jamcams-camera-list.xml","refresh":true,"refresh_seconds":10,"type":"live-feed"},{"id":"0000106738","lat":51.4374,"lng":-0.38065,"icon":44,"title":"A312 Hampton Rd York Way","url":"http:\/\/www.comroads.com\/live-feed\/a312-hampton-rd-york-way-0000106738","cc":"GB","tu":"https:\/\/s3-eu-west-1.amazonaws.com\/jamcams.tfl.gov.uk\/00001.06738.jpg?1472110141","source":"jamcams-camera-list.xml","refresh":true,"refresh_seconds":10,"type":"live-feed"},{"id":"0000200338","lat":51.451,"lng":0.10833,"icon":44,"title":"PARK MEAD","url":"http:\/\/www.comroads.com\/live-feed\/park-mead-0000200338","cc":"GB","tu":"https:\/\/s3-eu-west-1.amazonaws.com\/jamcams.tfl.gov.uk\/00002.00338.jpg?1472110141","source":"jamcams-camera-list.xml","refresh":true,"refresh_seconds":10,"type":"live-feed"},{"id":"0000104669","lat":51.4305,"lng":-0.16531,"icon":44,"title":"Upper Tooting Rd\/Kellino St","url":"http:\/\/www.comroads.com\/live-feed\/upper-tooting-rdkellino-st-0000104669","cc":"GB","tu":"https:\/\/s3-eu-west-1.amazonaws.com\/jamcams.tfl.gov.uk\/00001.04669.jpg?1472110141","source":"jamcams-camera-list.xml","refresh":true,"refresh_seconds":10,"type":"live-feed"},{"id":"0000102001","lat":51.5112,"lng":-0.07301,"icon":44,"title":"Goodmans Yard\/ Mansell Street","url":"http:\/\/www.comroads.com\/live-feed\/goodmans-yard-mansell-street-0000102001","cc":"GB","tu":"https:\/\/s3-eu-west-1.amazonaws.com\/jamcams.tfl.gov.uk\/00001.02001.jpg?1472110141","source":"jamcams-camera-list.xml","refresh":true,"refresh_seconds":10,"type":"live-feed"},{"id":"0000103720","lat":51.4501,"lng":0.02974,"icon":44,"title":"A205 Westhorne Av\/Sidcup Rd","url":"http:\/\/www.comroads.com\/live-feed\/a205-westhorne-avsidcup-rd-0000103720","cc":"GB","tu":"https:\/\/s3-eu-west-1.amazonaws.com\/jamcams.tfl.gov.uk\/00001.03720.jpg?1472110141","source":"jamcams-camera-list.xml","refresh":true,"refresh_seconds":10,"type":"live-feed"},{"id":"0000104679","lat":51.4388,"lng":-0.24865,"icon":44,"title":"Roehampton Vale\/Stag Lane","url":"http:\/\/www.comroads.com\/live-feed\/roehampton-valestag-lane-0000104679","cc":"GB","tu":"https:\/\/s3-eu-west-1.amazonaws.com\/jamcams.tfl.gov.uk\/00001.04679.jpg?1472110141","source":"jamcams-camera-list.xml","refresh":true,"refresh_seconds":10,"type":"live-feed"},{"id":"0000106500","lat":51.4838,"lng":-0.16356,"icon":44,"title":"Chelsea Embankment\/Royal Hosp Rd","url":"http:\/\/www.comroads.com\/live-feed\/chelsea-embankmentroyal-hosp-rd-0000106500","cc":"GB","tu":"https:\/\/s3-eu-west-1.amazonaws.com\/jamcams.tfl.gov.uk\/00001.06500.jpg?1472110141","source":"jamcams-camera-list.xml","refresh":true,"refresh_seconds":10,"type":"live-feed"},{"id":"0000104427","lat":51.3779,"lng":-0.10251,"icon":44,"title":"Tamworth Rd\/North End Rd","url":"http:\/\/www.comroads.com\/live-feed\/tamworth-rdnorth-end-rd-0000104427","cc":"GB","tu":"https:\/\/s3-eu-west-1.amazonaws.com\/jamcams.tfl.gov.uk\/00001.04427.jpg?1472110141","source":"jamcams-camera-list.xml","refresh":true,"refresh_seconds":10,"type":"live-feed"},{"id":"0000104655","lat":51.4075,"lng":-0.19236,"icon":44,"title":"A24 Morden Rd\/Dorset Road","url":"http:\/\/www.comroads.com\/live-feed\/a24-morden-rddorset-road-0000104655","cc":"GB","tu":"https:\/\/s3-eu-west-1.amazonaws.com\/jamcams.tfl.gov.uk\/00001.04655.jpg?1472110141","source":"jamcams-camera-list.xml","refresh":true,"refresh_seconds":10,"type":"live-feed"},{"id":"0000200813","lat":51.5296,"lng":-0.0142,"icon":44,"title":"Bow Rd Flyover","url":"http:\/\/www.comroads.com\/live-feed\/bow-rd-flyover-0000200813","cc":"GB","tu":"https:\/\/s3-eu-west-1.amazonaws.com\/jamcams.tfl.gov.uk\/00002.00813.jpg?1472110141","source":"jamcams-camera-list.xml","refresh":true,"refresh_seconds":10,"type":"live-feed"},{"id":"0000104616","lat":51.4712,"lng":-0.12362,"icon":44,"title":"A3 Clapham Rd\/Lingham St","url":"http:\/\/www.comroads.com\/live-feed\/a3-clapham-rdlingham-st-0000104616","cc":"GB","tu":"https:\/\/s3-eu-west-1.amazonaws.com\/jamcams.tfl.gov.uk\/00001.04616.jpg?1472110141","source":"jamcams-camera-list.xml","refresh":true,"refresh_seconds":10,"type":"live-feed"},{"id":"0000200861","lat":51.5955,"lng":0.01088,"icon":44,"title":"Waterworks R\/B","url":"http:\/\/www.comroads.com\/live-feed\/waterworks-rb-0000200861","cc":"GB","tu":"https:\/\/s3-eu-west-1.amazonaws.com\/jamcams.tfl.gov.uk\/00002.00861.jpg?1472110141","source":"jamcams-camera-list.xml","refresh":true,"refresh_seconds":10,"type":"live-feed"},{"id":"0000103817","lat":51.4335,"lng":-0.0178,"icon":44,"title":"A21 Bromley Rd\/Bellingham Rd","url":"http:\/\/www.comroads.com\/live-feed\/a21-bromley-rdbellingham-rd-0000103817","cc":"GB","tu":"https:\/\/s3-eu-west-1.amazonaws.com\/jamcams.tfl.gov.uk\/00001.03817.jpg?1472110141","source":"jamcams-camera-list.xml","refresh":true,"refresh_seconds":10,"type":"live-feed"},{"id":"0000104613","lat":51.4745,"lng":-0.12036,"icon":44,"title":"A3 Clapham Rd\/Stockwell Park Rd","url":"http:\/\/www.comroads.com\/live-feed\/a3-clapham-rdstockwell-park-rd-0000104613","cc":"GB","tu":"https:\/\/s3-eu-west-1.amazonaws.com\/jamcams.tfl.gov.uk\/00001.04613.jpg?1472110141","source":"jamcams-camera-list.xml","refresh":true,"refresh_seconds":10,"type":"live-feed"},{"id":"0000106739","lat":51.4453,"lng":-0.39974,"icon":44,"title":"Uxbridge Road\/Browells Lane","url":"http:\/\/www.comroads.com\/live-feed\/uxbridge-roadbrowells-lane-0000106739","cc":"GB","tu":"https:\/\/s3-eu-west-1.amazonaws.com\/jamcams.tfl.gov.uk\/00001.06739.jpg?1472110141","source":"jamcams-camera-list.xml","refresh":true,"refresh_seconds":10,"type":"live-feed"},{"id":"0000104333","lat":51.4799,"lng":-0.10755,"icon":44,"title":"Camberwell New Rd\/Foxley Rd","url":"http:\/\/www.comroads.com\/live-feed\/camberwell-new-rdfoxley-rd-0000104333","cc":"GB","tu":"https:\/\/s3-eu-west-1.amazonaws.com\/jamcams.tfl.gov.uk\/00001.04333.jpg?1472110141","source":"jamcams-camera-list.xml","refresh":true,"refresh_seconds":10,"type":"live-feed"},{"id":"0000102206","lat":51.5181,"lng":-0.03008,"icon":44,"title":"Burdett Rd\/Ackroyd Drive","url":"http:\/\/www.comroads.com\/live-feed\/burdett-rdackroyd-drive-0000102206","cc":"GB","tu":"https:\/\/s3-eu-west-1.amazonaws.com\/jamcams.tfl.gov.uk\/00001.02206.jpg?1472110141","source":"jamcams-camera-list.xml","refresh":true,"refresh_seconds":10,"type":"live-feed"},{"id":"0000109614","lat":51.5736,"lng":-0.08793,"icon":44,"title":"Seven Sisters Rd\/Amhurst Pk","url":"http:\/\/www.comroads.com\/live-feed\/seven-sisters-rdamhurst-pk-0000109614","cc":"GB","tu":"https:\/\/s3-eu-west-1.amazonaws.com\/jamcams.tfl.gov.uk\/00001.09614.jpg?1472110141","source":"jamcams-camera-list.xml","refresh":true,"refresh_seconds":10,"type":"live-feed"},{"id":"0000102146","lat":51.5443,"lng":0.00026,"icon":44,"title":"Great Eastern Rd\/Angel Lane Bridge","url":"http:\/\/www.comroads.com\/live-feed\/great-eastern-rdangel-lane-bridge-0000102146","cc":"GB","tu":"https:\/\/s3-eu-west-1.amazonaws.com\/jamcams.tfl.gov.uk\/00001.02146.jpg?1472110141","source":"jamcams-camera-list.xml","refresh":true,"refresh_seconds":10,"type":"live-feed"},{"id":"0000108750","lat":51.5033,"lng":-0.15099,"icon":44,"title":"Hyde Park Corner\/Park Lane","url":"http:\/\/www.comroads.com\/live-feed\/hyde-park-cornerpark-lane-0000108750","cc":"GB","tu":"https:\/\/s3-eu-west-1.amazonaws.com\/jamcams.tfl.gov.uk\/00001.08750.jpg?1472110141","source":"jamcams-camera-list.xml","refresh":true,"refresh_seconds":10,"type":"live-feed"},{"id":"0000104652","lat":51.4508,"lng":-0.14787,"icon":44,"title":"A24 south of Malwood Rd","url":"http:\/\/www.comroads.com\/live-feed\/a24-south-of-malwood-rd-0000104652","cc":"GB","tu":"https:\/\/s3-eu-west-1.amazonaws.com\/jamcams.tfl.gov.uk\/00001.04652.jpg?1472110141","source":"jamcams-camera-list.xml","refresh":true,"refresh_seconds":10,"type":"live-feed"},{"id":"0000102253","lat":51.5148,"lng":-0.06229,"icon":44,"title":"Commercial Rd\/New Rd","url":"http:\/\/www.comroads.com\/live-feed\/commercial-rdnew-rd-0000102253","cc":"GB","tu":"https:\/\/s3-eu-west-1.amazonaws.com\/jamcams.tfl.gov.uk\/00001.02253.jpg?1472110141","source":"jamcams-camera-list.xml","refresh":true,"refresh_seconds":10,"type":"live-feed"},{"id":"0000104541","lat":51.4107,"lng":-0.12273,"icon":44,"title":"A23 London Road\/Norbury Crescent","url":"http:\/\/www.comroads.com\/live-feed\/a23-london-roadnorbury-crescent-0000104541","cc":"GB","tu":"https:\/\/s3-eu-west-1.amazonaws.com\/jamcams.tfl.gov.uk\/00001.04541.jpg?1472110141","source":"jamcams-camera-list.xml","refresh":true,"refresh_seconds":10,"type":"live-feed"},{"id":"0000106716","lat":51.4643,"lng":-0.2734,"icon":44,"title":"A205 Upper Rmond Rd\/Carlton Rd","url":"http:\/\/www.comroads.com\/live-feed\/a205-upper-rmond-rdcarlton-rd-0000106716","cc":"GB","tu":"https:\/\/s3-eu-west-1.amazonaws.com\/jamcams.tfl.gov.uk\/00001.06716.jpg?1472110141","source":"jamcams-camera-list.xml","refresh":true,"refresh_seconds":10,"type":"live-feed"},{"id":"0000104570","lat":51.3398,"lng":-0.11739,"icon":44,"title":"A23 Purley Cross\/A23 Foxley Lane","url":"http:\/\/www.comroads.com\/live-feed\/a23-purley-crossa23-foxley-lane-0000104570","cc":"GB","tu":"https:\/\/s3-eu-west-1.amazonaws.com\/jamcams.tfl.gov.uk\/00001.04570.jpg?1472110141","source":"jamcams-camera-list.xml","refresh":true,"refresh_seconds":10,"type":"live-feed"},{"id":"0000102158","lat":51.5497,"lng":0.04485,"icon":44,"title":"Romford Rd \/ Carlton Rd","url":"http:\/\/www.comroads.com\/live-feed\/romford-rd-carlton-rd-0000102158","cc":"GB","tu":"https:\/\/s3-eu-west-1.amazonaws.com\/jamcams.tfl.gov.uk\/00001.02158.jpg?1472110141","source":"jamcams-camera-list.xml","refresh":true,"refresh_seconds":10,"type":"live-feed"},{"id":"0000200816","lat":51.5448,"lng":-0.03214,"icon":44,"title":"A12 Wick Road","url":"http:\/\/www.comroads.com\/live-feed\/a12-wick-road-0000200816","cc":"GB","tu":"https:\/\/s3-eu-west-1.amazonaws.com\/jamcams.tfl.gov.uk\/00002.00816.jpg?1472110141","source":"jamcams-camera-list.xml","refresh":true,"refresh_seconds":10,"type":"live-feed"},{"id":"0000108853","lat":51.5193,"lng":-0.16915,"icon":44,"title":"Edgware Road \/ Praed Street","url":"http:\/\/www.comroads.com\/live-feed\/edgware-road-praed-street-0000108853","cc":"GB","tu":"https:\/\/s3-eu-west-1.amazonaws.com\/jamcams.tfl.gov.uk\/00001.08853.jpg?1472110141","source":"jamcams-camera-list.xml","refresh":true,"refresh_seconds":10,"type":"live-feed"},{"id":"0000103666","lat":51.4737,"lng":-0.08359,"icon":44,"title":"Peckham Rd E of Vestry Rd","url":"http:\/\/www.comroads.com\/live-feed\/peckham-rd-e-of-vestry-rd-0000103666","cc":"GB","tu":"https:\/\/s3-eu-west-1.amazonaws.com\/jamcams.tfl.gov.uk\/00001.03666.jpg?1472110141","source":"jamcams-camera-list.xml","refresh":true,"refresh_seconds":10,"type":"live-feed"},{"id":"0000200829","lat":51.5685,"lng":0.00745,"icon":44,"title":"A12 Lstone E 3860A","url":"http:\/\/www.comroads.com\/live-feed\/a12-lstone-e-3860a-0000200829","cc":"GB","tu":"https:\/\/s3-eu-west-1.amazonaws.com\/jamcams.tfl.gov.uk\/00002.00829.jpg?1472110141","source":"jamcams-camera-list.xml","refresh":true,"refresh_seconds":10,"type":"live-feed"},{"id":"0000106730","lat":51.4496,"lng":-0.33026,"icon":44,"title":"London Rd\/Arragon Rd","url":"http:\/\/www.comroads.com\/live-feed\/london-rdarragon-rd-0000106730","cc":"GB","tu":"https:\/\/s3-eu-west-1.amazonaws.com\/jamcams.tfl.gov.uk\/00001.06730.jpg?1472110141","source":"jamcams-camera-list.xml","refresh":true,"refresh_seconds":10,"type":"live-feed"},{"id":"0000104675","lat":51.3846,"lng":-0.21282,"icon":44,"title":"Stonecot Hill\/Hill Top","url":"http:\/\/www.comroads.com\/live-feed\/stonecot-hillhill-top-0000104675","cc":"GB","tu":"https:\/\/s3-eu-west-1.amazonaws.com\/jamcams.tfl.gov.uk\/00001.04675.jpg?1472110141","source":"jamcams-camera-list.xml","refresh":true,"refresh_seconds":10,"type":"live-feed"},{"id":"0000104275","lat":51.4843,"lng":-0.12684,"icon":44,"title":"Nine Elms","url":"http:\/\/www.comroads.com\/live-feed\/nine-elms-0000104275","cc":"GB","tu":"https:\/\/s3-eu-west-1.amazonaws.com\/jamcams.tfl.gov.uk\/00001.04275.jpg?1472110141","source":"jamcams-camera-list.xml","refresh":true,"refresh_seconds":10,"type":"live-feed"},{"id":"0000101403","lat":51.5289,"lng":-0.07774,"icon":44,"title":"A10 North of Waterson St","url":"http:\/\/www.comroads.com\/live-feed\/a10-north-of-waterson-st-0000101403","cc":"GB","tu":"https:\/\/s3-eu-west-1.amazonaws.com\/jamcams.tfl.gov.uk\/00001.01403.jpg?1472110141","source":"jamcams-camera-list.xml","refresh":true,"refresh_seconds":10,"type":"live-feed"},{"id":"0000102156","lat":51.547,"lng":0.0318,"icon":44,"title":"Romford Rd \/ Green St","url":"http:\/\/www.comroads.com\/live-feed\/romford-rd-green-st-0000102156","cc":"GB","tu":"https:\/\/s3-eu-west-1.amazonaws.com\/jamcams.tfl.gov.uk\/00001.02156.jpg?1472110141","source":"jamcams-camera-list.xml","refresh":true,"refresh_seconds":10,"type":"live-feed"},{"id":"0000108863","lat":51.5127,"lng":-0.15787,"icon":44,"title":"A4202 Park Lane\/North Row","url":"http:\/\/www.comroads.com\/live-feed\/a4202-park-lanenorth-row-0000108863","cc":"GB","tu":"https:\/\/s3-eu-west-1.amazonaws.com\/jamcams.tfl.gov.uk\/00001.08863.jpg?1472110141","source":"jamcams-camera-list.xml","refresh":true,"refresh_seconds":10,"type":"live-feed"},{"id":"0000103105","lat":51.4837,"lng":-0.00014,"icon":44,"title":"Trafalgar Rd\/Greenwich Pk St","url":"http:\/\/www.comroads.com\/live-feed\/trafalgar-rdgreenwich-pk-st-0000103105","cc":"GB","tu":"https:\/\/s3-eu-west-1.amazonaws.com\/jamcams.tfl.gov.uk\/00001.03105.jpg?1472110141","source":"jamcams-camera-list.xml","refresh":true,"refresh_seconds":10,"type":"live-feed"},{"id":"0000103850","lat":51.4918,"lng":-0.09814,"icon":44,"title":"Walworth Rd\/Heygate St","url":"http:\/\/www.comroads.com\/live-feed\/walworth-rdheygate-st-0000103850","cc":"GB","tu":"https:\/\/s3-eu-west-1.amazonaws.com\/jamcams.tfl.gov.uk\/00001.03850.jpg?1472110141","source":"jamcams-camera-list.xml","refresh":true,"refresh_seconds":10,"type":"live-feed"},{"id":"0000103816","lat":51.435,"lng":-0.0178,"icon":44,"title":"A21 Bromley Rd\/Callander Rd","url":"http:\/\/www.comroads.com\/live-feed\/a21-bromley-rdcallander-rd-0000103816","cc":"GB","tu":"https:\/\/s3-eu-west-1.amazonaws.com\/jamcams.tfl.gov.uk\/00001.03816.jpg?1472110141","source":"jamcams-camera-list.xml","refresh":true,"refresh_seconds":10,"type":"live-feed"},{"id":"0000102200","lat":51.5246,"lng":-0.03482,"icon":44,"title":"Burdett Rd\/Mile End Rd","url":"http:\/\/www.comroads.com\/live-feed\/burdett-rdmile-end-rd-0000102200","cc":"GB","tu":"https:\/\/s3-eu-west-1.amazonaws.com\/jamcams.tfl.gov.uk\/00001.02200.jpg?1472110141","source":"jamcams-camera-list.xml","refresh":true,"refresh_seconds":10,"type":"live-feed"},{"id":"0000107550","lat":51.5113,"lng":-0.1283,"icon":44,"title":"Charing Cross Rd\/Cranbourne St","url":"http:\/\/www.comroads.com\/live-feed\/charing-cross-rdcranbourne-st-0000107550","cc":"GB","tu":"https:\/\/s3-eu-west-1.amazonaws.com\/jamcams.tfl.gov.uk\/00001.07550.jpg?1472110141","source":"jamcams-camera-list.xml","refresh":true,"refresh_seconds":10,"type":"live-feed"},{"id":"0000104545","lat":51.394,"lng":-0.11425,"icon":44,"title":"London Road\/Raymead Avenue","url":"http:\/\/www.comroads.com\/live-feed\/london-roadraymead-avenue-0000104545","cc":"GB","tu":"https:\/\/s3-eu-west-1.amazonaws.com\/jamcams.tfl.gov.uk\/00001.04545.jpg?1472110141","source":"jamcams-camera-list.xml","refresh":true,"refresh_seconds":10,"type":"live-feed"},{"id":"0000102109","lat":51.5199,"lng":-0.05565,"icon":44,"title":"Mile End Rd\/Cambridge Heath Rd","url":"http:\/\/www.comroads.com\/live-feed\/mile-end-rdcambridge-heath-rd-0000102109","cc":"GB","tu":"https:\/\/s3-eu-west-1.amazonaws.com\/jamcams.tfl.gov.uk\/00001.02109.jpg?1472110141","source":"jamcams-camera-list.xml","refresh":true,"refresh_seconds":10,"type":"live-feed"},{"id":"0000101609","lat":51.569,"lng":-0.06198,"icon":44,"title":"Clapton Common\/Forburg Rd","url":"http:\/\/www.comroads.com\/live-feed\/clapton-commonforburg-rd-0000101609","cc":"GB","tu":"https:\/\/s3-eu-west-1.amazonaws.com\/jamcams.tfl.gov.uk\/00001.01609.jpg?1472110141","source":"jamcams-camera-list.xml","refresh":true,"refresh_seconds":10,"type":"live-feed"},{"id":"0000104574","lat":51.3077,"lng":-0.14622,"icon":44,"title":"Brighton Rd\/Hollymeoak Rd","url":"http:\/\/www.comroads.com\/live-feed\/brighton-rdhollymeoak-rd-0000104574","cc":"GB","tu":"https:\/\/s3-eu-west-1.amazonaws.com\/jamcams.tfl.gov.uk\/00001.04574.jpg?1472110141","source":"jamcams-camera-list.xml","refresh":true,"refresh_seconds":10,"type":"live-feed"},{"id":"0000200876","lat":51.6146,"lng":-0.0733,"icon":44,"title":"Fore St West Ramp","url":"http:\/\/www.comroads.com\/live-feed\/fore-st-west-ramp-0000200876","cc":"GB","tu":"https:\/\/s3-eu-west-1.amazonaws.com\/jamcams.tfl.gov.uk\/00002.00876.jpg?1472110141","source":"jamcams-camera-list.xml","refresh":true,"refresh_seconds":10,"type":"live-feed"},{"id":"0000107318","lat":51.5487,"lng":-0.399,"icon":44,"title":"A40 Western Ave\/West End Rd","url":"http:\/\/www.comroads.com\/live-feed\/a40-western-avewest-end-rd-0000107318","cc":"GB","tu":"https:\/\/s3-eu-west-1.amazonaws.com\/jamcams.tfl.gov.uk\/00001.07318.jpg?1472110141","source":"jamcams-camera-list.xml","refresh":true,"refresh_seconds":10,"type":"live-feed"},{"id":"0000107553","lat":51.5294,"lng":-0.13854,"icon":44,"title":"H.Stead Rd\/Cardington St","url":"http:\/\/www.comroads.com\/live-feed\/hstead-rdcardington-st-0000107553","cc":"GB","tu":"https:\/\/s3-eu-west-1.amazonaws.com\/jamcams.tfl.gov.uk\/00001.07553.jpg?1472110141","source":"jamcams-camera-list.xml","refresh":true,"refresh_seconds":10,"type":"live-feed"},{"id":"0000109630","lat":51.5318,"lng":-0.12093,"icon":44,"title":"Caledonian R\/Caledonia S","url":"http:\/\/www.comroads.com\/live-feed\/caledonian-rcaledonia-s-0000109630","cc":"GB","tu":"https:\/\/s3-eu-west-1.amazonaws.com\/jamcams.tfl.gov.uk\/00001.09630.jpg?1472110141","source":"jamcams-camera-list.xml","refresh":true,"refresh_seconds":10,"type":"live-feed"},{"id":"0000104528","lat":51.4403,"lng":-0.12581,"icon":44,"title":"A23 Streatham H\/Barrhill Rd","url":"http:\/\/www.comroads.com\/live-feed\/a23-streatham-hbarrhill-rd-0000104528","cc":"GB","tu":"https:\/\/s3-eu-west-1.amazonaws.com\/jamcams.tfl.gov.uk\/00001.04528.jpg?1472110141","source":"jamcams-camera-list.xml","refresh":true,"refresh_seconds":10,"type":"live-feed"},{"id":"0000103764","lat":51.4351,"lng":0.06308,"icon":44,"title":"A20 Sidcup Rd\/Coyler Close","url":"http:\/\/www.comroads.com\/live-feed\/a20-sidcup-rdcoyler-close-0000103764","cc":"GB","tu":"https:\/\/s3-eu-west-1.amazonaws.com\/jamcams.tfl.gov.uk\/00001.03764.jpg?1472110141","source":"jamcams-camera-list.xml","refresh":true,"refresh_seconds":10,"type":"live-feed"},{"id":"0000107387","lat":51.5243,"lng":-0.14038,"icon":44,"title":"Euston Rd\/Conway St","url":"http:\/\/www.comroads.com\/live-feed\/euston-rdconway-st-0000107387","cc":"GB","tu":"https:\/\/s3-eu-west-1.amazonaws.com\/jamcams.tfl.gov.uk\/00001.07387.jpg?1472110141","source":"jamcams-camera-list.xml","refresh":true,"refresh_seconds":10,"type":"live-feed"},{"id":"0000108923","lat":51.5236,"lng":-0.15811,"icon":44,"title":"Baker St\/S of Park Rd","url":"http:\/\/www.comroads.com\/live-feed\/baker-sts-of-park-rd-0000108923","cc":"GB","tu":"https:\/\/s3-eu-west-1.amazonaws.com\/jamcams.tfl.gov.uk\/00001.08923.jpg?1472110141","source":"jamcams-camera-list.xml","refresh":true,"refresh_seconds":10,"type":"live-feed"},{"id":"0000107358","lat":51.5283,"lng":-0.12807,"icon":44,"title":"A501 W of Mabledon Place","url":"http:\/\/www.comroads.com\/live-feed\/a501-w-of-mabledon-place-0000107358","cc":"GB","tu":"https:\/\/s3-eu-west-1.amazonaws.com\/jamcams.tfl.gov.uk\/00001.07358.jpg?1472110141","source":"jamcams-camera-list.xml","refresh":true,"refresh_seconds":10,"type":"live-feed"},{"id":"0000102646","lat":51.4586,"lng":-0.19554,"icon":44,"title":"Armoury Wy\/Wandsworth Plain","url":"http:\/\/www.comroads.com\/live-feed\/armoury-wywandsworth-plain-0000102646","cc":"GB","tu":"https:\/\/s3-eu-west-1.amazonaws.com\/jamcams.tfl.gov.uk\/00001.02646.jpg?1472110141","source":"jamcams-camera-list.xml","refresh":true,"refresh_seconds":10,"type":"live-feed"},{"id":"0000104631","lat":51.4762,"lng":-0.14847,"icon":44,"title":"Battersea Pk Rd\/Queenstown Rd","url":"http:\/\/www.comroads.com\/live-feed\/battersea-pk-rdqueenstown-rd-0000104631","cc":"GB","tu":"https:\/\/s3-eu-west-1.amazonaws.com\/jamcams.tfl.gov.uk\/00001.04631.jpg?1472110141","source":"jamcams-camera-list.xml","refresh":true,"refresh_seconds":10,"type":"live-feed"},{"id":"0000102414","lat":51.5764,"lng":0.06064,"icon":44,"title":"A12 Eastern Av\/Beehive Lane","url":"http:\/\/www.comroads.com\/live-feed\/a12-eastern-avbeehive-lane-0000102414","cc":"GB","tu":"https:\/\/s3-eu-west-1.amazonaws.com\/jamcams.tfl.gov.uk\/00001.02414.jpg?1472110141","source":"jamcams-camera-list.xml","refresh":true,"refresh_seconds":10,"type":"live-feed"},{"id":"0000104279","lat":51.4812,"lng":-0.13804,"icon":44,"title":"Nine Elms Ln\/Cringle St","url":"http:\/\/www.comroads.com\/live-feed\/nine-elms-lncringle-st-0000104279","cc":"GB","tu":"https:\/\/s3-eu-west-1.amazonaws.com\/jamcams.tfl.gov.uk\/00001.04279.jpg?1472110141","source":"jamcams-camera-list.xml","refresh":true,"refresh_seconds":10,"type":"live-feed"},{"id":"0000104506","lat":51.4614,"lng":-0.11563,"icon":44,"title":"Acre Lane\/Coldharbour Lane","url":"http:\/\/www.comroads.com\/live-feed\/acre-lanecoldharbour-lane-0000104506","cc":"GB","tu":"https:\/\/s3-eu-west-1.amazonaws.com\/jamcams.tfl.gov.uk\/00001.04506.jpg?1472110141","source":"jamcams-camera-list.xml","refresh":true,"refresh_seconds":10,"type":"live-feed"},{"id":"0000107303","lat":51.5204,"lng":-0.19227,"icon":44,"title":"A40(M) Paddington Slip","url":"http:\/\/www.comroads.com\/live-feed\/a40m-paddington-slip-0000107303","cc":"GB","tu":"https:\/\/s3-eu-west-1.amazonaws.com\/jamcams.tfl.gov.uk\/00001.07303.jpg?1472110141","source":"jamcams-camera-list.xml","refresh":true,"refresh_seconds":10,"type":"live-feed"},{"id":"0000106694","lat":51.5133,"lng":-0.3911,"icon":44,"title":"Delamare Rd\/Broadway","url":"http:\/\/www.comroads.com\/live-feed\/delamare-rdbroadway-0000106694","cc":"GB","tu":"https:\/\/s3-eu-west-1.amazonaws.com\/jamcams.tfl.gov.uk\/00001.06694.jpg?1472110141","source":"jamcams-camera-list.xml","refresh":true,"refresh_seconds":10,"type":"live-feed"},{"id":"0000103752","lat":51.4449,"lng":-0.02012,"icon":44,"title":"Catford One Way\/Rushey Green","url":"http:\/\/www.comroads.com\/live-feed\/catford-one-wayrushey-green-0000103752","cc":"GB","tu":"https:\/\/s3-eu-west-1.amazonaws.com\/jamcams.tfl.gov.uk\/00001.03752.jpg?1472110141","source":"jamcams-camera-list.xml","refresh":true,"refresh_seconds":10,"type":"live-feed"},{"id":"0000102255","lat":51.5143,"lng":-0.05451,"icon":44,"title":"Commercial Rd\/Dean Cross St","url":"http:\/\/www.comroads.com\/live-feed\/commercial-rddean-cross-st-0000102255","cc":"GB","tu":"https:\/\/s3-eu-west-1.amazonaws.com\/jamcams.tfl.gov.uk\/00001.02255.jpg?1472110141","source":"jamcams-camera-list.xml","refresh":true,"refresh_seconds":10,"type":"live-feed"},{"id":"0000102300","lat":51.5208,"lng":0.01934,"icon":44,"title":"Barking Rd\/King St","url":"http:\/\/www.comroads.com\/live-feed\/barking-rdking-st-0000102300","cc":"GB","tu":"https:\/\/s3-eu-west-1.amazonaws.com\/jamcams.tfl.gov.uk\/00001.02300.jpg?1472110141","source":"jamcams-camera-list.xml","refresh":true,"refresh_seconds":10,"type":"live-feed"},{"id":"0000104880","lat":51.3419,"lng":-0.31786,"icon":44,"title":"Leatherhead Rd\/Fairoak Lane","url":"http:\/\/www.comroads.com\/live-feed\/leatherhead-rdfairoak-lane-0000104880","cc":"GB","tu":"https:\/\/s3-eu-west-1.amazonaws.com\/jamcams.tfl.gov.uk\/00001.04880.jpg?1472110141","source":"jamcams-camera-list.xml","refresh":true,"refresh_seconds":10,"type":"live-feed"},{"id":"0000101417","lat":51.5559,"lng":-0.07467,"icon":44,"title":"A10 North of Walford Rd","url":"http:\/\/www.comroads.com\/live-feed\/a10-north-of-walford-rd-0000101417","cc":"GB","tu":"https:\/\/s3-eu-west-1.amazonaws.com\/jamcams.tfl.gov.uk\/00001.01417.jpg?1472110141","source":"jamcams-camera-list.xml","refresh":true,"refresh_seconds":10,"type":"live-feed"},{"id":"0000103223","lat":51.4516,"lng":0.17875,"icon":44,"title":"Crayford Rd\/Crayford Way","url":"http:\/\/www.comroads.com\/live-feed\/crayford-rdcrayford-way-0000103223","cc":"GB","tu":"https:\/\/s3-eu-west-1.amazonaws.com\/jamcams.tfl.gov.uk\/00001.03223.jpg?1472110141","source":"jamcams-camera-list.xml","refresh":true,"refresh_seconds":10,"type":"live-feed"},{"id":"0000104280","lat":51.47,"lng":-0.17175,"icon":44,"title":"York Road\/Falcon Road","url":"http:\/\/www.comroads.com\/live-feed\/york-roadfalcon-road-0000104280","cc":"GB","tu":"https:\/\/s3-eu-west-1.amazonaws.com\/jamcams.tfl.gov.uk\/00001.04280.jpg?1472110141","source":"jamcams-camera-list.xml","refresh":true,"refresh_seconds":10,"type":"live-feed"},{"id":"0000103660","lat":51.4753,"lng":-0.04715,"icon":44,"title":"A2 New Cross Rd\/Besson St","url":"http:\/\/www.comroads.com\/live-feed\/a2-new-cross-rdbesson-st-0000103660","cc":"GB","tu":"https:\/\/s3-eu-west-1.amazonaws.com\/jamcams.tfl.gov.uk\/00001.03660.jpg?1472110141","source":"jamcams-camera-list.xml","refresh":true,"refresh_seconds":10,"type":"live-feed"},{"id":"0000109049","lat":51.59,"lng":-0.20008,"icon":44,"title":"A406 NCR Henlys Corner","url":"http:\/\/www.comroads.com\/live-feed\/a406-ncr-henlys-corner-0000109049","cc":"GB","tu":"https:\/\/s3-eu-west-1.amazonaws.com\/jamcams.tfl.gov.uk\/00001.09049.jpg?1472110141","source":"jamcams-camera-list.xml","refresh":true,"refresh_seconds":10,"type":"live-feed"},{"id":"0000104690","lat":51.3752,"lng":-0.30359,"icon":44,"title":"A3 Hook Rise\/A243 Hook Rd","url":"http:\/\/www.comroads.com\/live-feed\/a3-hook-risea243-hook-rd-0000104690","cc":"GB","tu":"https:\/\/s3-eu-west-1.amazonaws.com\/jamcams.tfl.gov.uk\/00001.04690.jpg?1472110141","source":"jamcams-camera-list.xml","refresh":true,"refresh_seconds":10,"type":"live-feed"},{"id":"0000200324","lat":51.5114,"lng":-0.00758,"icon":44,"title":"A13\/A102 EIDR","url":"http:\/\/www.comroads.com\/live-feed\/a13a102-eidr-0000200324","cc":"GB","tu":"https:\/\/s3-eu-west-1.amazonaws.com\/jamcams.tfl.gov.uk\/00002.00324.jpg?1472110141","source":"jamcams-camera-list.xml","refresh":true,"refresh_seconds":10,"type":"live-feed"},{"id":"0000200336","lat":51.4586,"lng":0.07559,"icon":44,"title":"A2 Riefield Road","url":"http:\/\/www.comroads.com\/live-feed\/a2-riefield-road-0000200336","cc":"GB","tu":"https:\/\/s3-eu-west-1.amazonaws.com\/jamcams.tfl.gov.uk\/00002.00336.jpg?1472110141","source":"jamcams-camera-list.xml","refresh":true,"refresh_seconds":10,"type":"live-feed"},{"id":"0000102264","lat":51.5303,"lng":0.09318,"icon":44,"title":"A13 Alfreds Way\/Movers Ln","url":"http:\/\/www.comroads.com\/live-feed\/a13-alfreds-waymovers-ln-0000102264","cc":"GB","tu":"https:\/\/s3-eu-west-1.amazonaws.com\/jamcams.tfl.gov.uk\/00001.02264.jpg?1472110141","source":"jamcams-camera-list.xml","refresh":true,"refresh_seconds":10,"type":"live-feed"},{"id":"0000200851","lat":51.576,"lng":0.04432,"icon":44,"title":"A12\/M11 Redbrdg 100A","url":"http:\/\/www.comroads.com\/live-feed\/a12m11-redbrdg-100a-0000200851","cc":"GB","tu":"https:\/\/s3-eu-west-1.amazonaws.com\/jamcams.tfl.gov.uk\/00002.00851.jpg?1472110141","source":"jamcams-camera-list.xml","refresh":true,"refresh_seconds":10,"type":"live-feed"},{"id":"0000104561","lat":51.387,"lng":-0.12104,"icon":44,"title":"A23 south of Thornton Ave","url":"http:\/\/www.comroads.com\/live-feed\/a23-south-of-thornton-ave-0000104561","cc":"GB","tu":"https:\/\/s3-eu-west-1.amazonaws.com\/jamcams.tfl.gov.uk\/00001.04561.jpg?1472110141","source":"jamcams-camera-list.xml","refresh":true,"refresh_seconds":10,"type":"live-feed"},{"id":"0000102269","lat":51.5132,"lng":-0.04356,"icon":44,"title":"Commercial Rd\/Westport St","url":"http:\/\/www.comroads.com\/live-feed\/commercial-rdwestport-st-0000102269","cc":"GB","tu":"https:\/\/s3-eu-west-1.amazonaws.com\/jamcams.tfl.gov.uk\/00001.02269.jpg?1472110141","source":"jamcams-camera-list.xml","refresh":true,"refresh_seconds":10,"type":"live-feed"},{"id":"0000104355","lat":51.3716,"lng":-0.09636,"icon":44,"title":"Park Lane\/Barclay Rd","url":"http:\/\/www.comroads.com\/live-feed\/park-lanebarclay-rd-0000104355","cc":"GB","tu":"https:\/\/s3-eu-west-1.amazonaws.com\/jamcams.tfl.gov.uk\/00001.04355.jpg?1472110141","source":"jamcams-camera-list.xml","refresh":true,"refresh_seconds":10,"type":"live-feed"},{"id":"0000108959","lat":51.5571,"lng":-0.19561,"icon":44,"title":"A41 Sth of Fortune Grn Rd","url":"http:\/\/www.comroads.com\/live-feed\/a41-sth-of-fortune-grn-rd-0000108959","cc":"GB","tu":"https:\/\/s3-eu-west-1.amazonaws.com\/jamcams.tfl.gov.uk\/00001.08959.jpg?1472110141","source":"jamcams-camera-list.xml","refresh":true,"refresh_seconds":10,"type":"live-feed"},{"id":"0000101430","lat":51.5732,"lng":-0.07268,"icon":44,"title":"Stamford Hill\/Amhurst Pk","url":"http:\/\/www.comroads.com\/live-feed\/stamford-hillamhurst-pk-0000101430","cc":"GB","tu":"https:\/\/s3-eu-west-1.amazonaws.com\/jamcams.tfl.gov.uk\/00001.01430.jpg?1472110141","source":"jamcams-camera-list.xml","refresh":true,"refresh_seconds":10,"type":"live-feed"},{"id":"0000106610","lat":51.4909,"lng":-0.23286,"icon":44,"title":"A4 Great W Rd\/Macbeth St","url":"http:\/\/www.comroads.com\/live-feed\/a4-great-w-rdmacbeth-st-0000106610","cc":"GB","tu":"https:\/\/s3-eu-west-1.amazonaws.com\/jamcams.tfl.gov.uk\/00001.06610.jpg?1472110141","source":"jamcams-camera-list.xml","refresh":true,"refresh_seconds":10,"type":"live-feed"},{"id":"0000103750","lat":51.4695,"lng":0.05439,"icon":44,"title":"A205 north of Broad Walk","url":"http:\/\/www.comroads.com\/live-feed\/a205-north-of-broad-walk-0000103750","cc":"GB","tu":"https:\/\/s3-eu-west-1.amazonaws.com\/jamcams.tfl.gov.uk\/00001.03750.jpg?1472110141","source":"jamcams-camera-list.xml","refresh":true,"refresh_seconds":10,"type":"live-feed"},{"id":"0000104672","lat":51.4018,"lng":-0.19698,"icon":44,"title":"Crown Lane\/Grasmere Avenue","url":"http:\/\/www.comroads.com\/live-feed\/crown-lanegrasmere-avenue-0000104672","cc":"GB","tu":"https:\/\/s3-eu-west-1.amazonaws.com\/jamcams.tfl.gov.uk\/00001.04672.jpg?1472110141","source":"jamcams-camera-list.xml","refresh":true,"refresh_seconds":10,"type":"live-feed"},{"id":"0000104643","lat":51.4747,"lng":-0.15454,"icon":44,"title":"Battersea Park Rd\/Forfar Rd","url":"http:\/\/www.comroads.com\/live-feed\/battersea-park-rdforfar-rd-0000104643","cc":"GB","tu":"https:\/\/s3-eu-west-1.amazonaws.com\/jamcams.tfl.gov.uk\/00001.04643.jpg?1472110141","source":"jamcams-camera-list.xml","refresh":true,"refresh_seconds":10,"type":"live-feed"},{"id":"0000102418","lat":51.5755,"lng":0.09367,"icon":44,"title":"A12 Eastern Av\/Brook Rd","url":"http:\/\/www.comroads.com\/live-feed\/a12-eastern-avbrook-rd-0000102418","cc":"GB","tu":"https:\/\/s3-eu-west-1.amazonaws.com\/jamcams.tfl.gov.uk\/00001.02418.jpg?1472110141","source":"jamcams-camera-list.xml","refresh":true,"refresh_seconds":10,"type":"live-feed"},{"id":"0000200343","lat":51.4642,"lng":0.0307,"icon":44,"title":"A2 Kidbrooke Junction","url":"http:\/\/www.comroads.com\/live-feed\/a2-kidbrooke-junction-0000200343","cc":"GB","tu":"https:\/\/s3-eu-west-1.amazonaws.com\/jamcams.tfl.gov.uk\/00002.00343.jpg?1472110141","source":"jamcams-camera-list.xml","refresh":true,"refresh_seconds":10,"type":"live-feed"},{"id":"0000102115","lat":51.5218,"lng":-0.04605,"icon":44,"title":"Mile End Rd\/Globe Rd","url":"http:\/\/www.comroads.com\/live-feed\/mile-end-rdglobe-rd-0000102115","cc":"GB","tu":"https:\/\/s3-eu-west-1.amazonaws.com\/jamcams.tfl.gov.uk\/00001.02115.jpg?1472110141","source":"jamcams-camera-list.xml","refresh":true,"refresh_seconds":10,"type":"live-feed"},{"id":"0000101419","lat":51.5596,"lng":-0.07424,"icon":44,"title":"A10 North of Tyssen Road","url":"http:\/\/www.comroads.com\/live-feed\/a10-north-of-tyssen-road-0000101419","cc":"GB","tu":"https:\/\/s3-eu-west-1.amazonaws.com\/jamcams.tfl.gov.uk\/00001.01419.jpg?1472110141","source":"jamcams-camera-list.xml","refresh":true,"refresh_seconds":10,"type":"live-feed"},{"id":"0000106697","lat":51.5096,"lng":-0.35525,"icon":44,"title":"Uxbridge Road\/Greenford Road","url":"http:\/\/www.comroads.com\/live-feed\/uxbridge-roadgreenford-road-0000106697","cc":"GB","tu":"https:\/\/s3-eu-west-1.amazonaws.com\/jamcams.tfl.gov.uk\/00001.06697.jpg?1472110141","source":"jamcams-camera-list.xml","refresh":true,"refresh_seconds":10,"type":"live-feed"},{"id":"0000104225","lat":51.5043,"lng":-0.11464,"icon":44,"title":"York Road opp Mepham St","url":"http:\/\/www.comroads.com\/live-feed\/york-road-opp-mepham-st-0000104225","cc":"GB","tu":"https:\/\/s3-eu-west-1.amazonaws.com\/jamcams.tfl.gov.uk\/00001.04225.jpg?1472110141","source":"jamcams-camera-list.xml","refresh":true,"refresh_seconds":10,"type":"live-feed"},{"id":"0000107367","lat":51.523,"lng":-0.15271,"icon":44,"title":"Marylebone Rd\/York Gate","url":"http:\/\/www.comroads.com\/live-feed\/marylebone-rdyork-gate-0000107367","cc":"GB","tu":"https:\/\/s3-eu-west-1.amazonaws.com\/jamcams.tfl.gov.uk\/00001.07367.jpg?1472110141","source":"jamcams-camera-list.xml","refresh":true,"refresh_seconds":10,"type":"live-feed"},{"id":"0000109738","lat":51.5858,"lng":-0.18285,"icon":44,"title":"Falloden Way\/Northway\/Hill Rise","url":"http:\/\/www.comroads.com\/live-feed\/falloden-waynorthwayhill-rise-0000109738","cc":"GB","tu":"https:\/\/s3-eu-west-1.amazonaws.com\/jamcams.tfl.gov.uk\/00001.09738.jpg?1472110141","source":"jamcams-camera-list.xml","refresh":true,"refresh_seconds":10,"type":"live-feed"},{"id":"0000104549","lat":51.4346,"lng":-0.1615,"icon":44,"title":"Upper Tooting Rd\/Topsham Rd","url":"http:\/\/www.comroads.com\/live-feed\/upper-tooting-rdtopsham-rd-0000104549","cc":"GB","tu":"https:\/\/s3-eu-west-1.amazonaws.com\/jamcams.tfl.gov.uk\/00001.04549.jpg?1472110141","source":"jamcams-camera-list.xml","refresh":true,"refresh_seconds":10,"type":"live-feed"},{"id":"0000102342","lat":51.5702,"lng":-0.02527,"icon":44,"title":"Lea Bridge Rd\/Markhouse Rd","url":"http:\/\/www.comroads.com\/live-feed\/lea-bridge-rdmarkhouse-rd-0000102342","cc":"GB","tu":"https:\/\/s3-eu-west-1.amazonaws.com\/jamcams.tfl.gov.uk\/00001.02342.jpg?1472110141","source":"jamcams-camera-list.xml","refresh":true,"refresh_seconds":10,"type":"live-feed"},{"id":"0000107554","lat":51.5343,"lng":-0.13926,"icon":44,"title":"H.Stead Rd\/Mornington Cr","url":"http:\/\/www.comroads.com\/live-feed\/hstead-rdmornington-cr-0000107554","cc":"GB","tu":"https:\/\/s3-eu-west-1.amazonaws.com\/jamcams.tfl.gov.uk\/00001.07554.jpg?1472110141","source":"jamcams-camera-list.xml","refresh":true,"refresh_seconds":10,"type":"live-feed"},{"id":"0000107380","lat":51.5363,"lng":-0.14681,"icon":44,"title":"Prince Albert Rd\/Parkway","url":"http:\/\/www.comroads.com\/live-feed\/prince-albert-rdparkway-0000107380","cc":"GB","tu":"https:\/\/s3-eu-west-1.amazonaws.com\/jamcams.tfl.gov.uk\/00001.07380.jpg?1472110141","source":"jamcams-camera-list.xml","refresh":true,"refresh_seconds":10,"type":"live-feed"},{"id":"0000102252","lat":51.5149,"lng":-0.06808,"icon":44,"title":"Commercial Rd\/Gowers Walk","url":"http:\/\/www.comroads.com\/live-feed\/commercial-rdgowers-walk-0000102252","cc":"GB","tu":"https:\/\/s3-eu-west-1.amazonaws.com\/jamcams.tfl.gov.uk\/00001.02252.jpg?1472110141","source":"jamcams-camera-list.xml","refresh":true,"refresh_seconds":10,"type":"live-feed"},{"id":"0000107354","lat":51.5295,"lng":-0.09677,"icon":44,"title":"City Rd by Central St","url":"http:\/\/www.comroads.com\/live-feed\/city-rd-by-central-st-0000107354","cc":"GB","tu":"https:\/\/s3-eu-west-1.amazonaws.com\/jamcams.tfl.gov.uk\/00001.07354.jpg?1472110141","source":"jamcams-camera-list.xml","refresh":true,"refresh_seconds":10,"type":"live-feed"},{"id":"0000104610","lat":51.4793,"lng":-0.11531,"icon":44,"title":"A3 Clapham Rd\/Crewdson Rd","url":"http:\/\/www.comroads.com\/live-feed\/a3-clapham-rdcrewdson-rd-0000104610","cc":"GB","tu":"https:\/\/s3-eu-west-1.amazonaws.com\/jamcams.tfl.gov.uk\/00001.04610.jpg?1472110141","source":"jamcams-camera-list.xml","refresh":true,"refresh_seconds":10,"type":"live-feed"},{"id":"0000102331","lat":51.5352,"lng":0.00881,"icon":44,"title":"Manor Rd\/New Plaistow Rd","url":"http:\/\/www.comroads.com\/live-feed\/manor-rdnew-plaistow-rd-0000102331","cc":"GB","tu":"https:\/\/s3-eu-west-1.amazonaws.com\/jamcams.tfl.gov.uk\/00001.02331.jpg?1472110141","source":"jamcams-camera-list.xml","refresh":true,"refresh_seconds":10,"type":"live-feed"},{"id":"0000104665","lat":51.4327,"lng":-0.16385,"icon":44,"title":"Upper Tooting Rd\/Ansell Rd","url":"http:\/\/www.comroads.com\/live-feed\/upper-tooting-rdansell-rd-0000104665","cc":"GB","tu":"https:\/\/s3-eu-west-1.amazonaws.com\/jamcams.tfl.gov.uk\/00001.04665.jpg?1472110141","source":"jamcams-camera-list.xml","refresh":true,"refresh_seconds":10,"type":"live-feed"},{"id":"0000106507","lat":51.4966,"lng":-0.14156,"icon":44,"title":"Victoria St\/Bressenden Place","url":"http:\/\/www.comroads.com\/live-feed\/victoria-stbressenden-place-0000106507","cc":"GB","tu":"https:\/\/s3-eu-west-1.amazonaws.com\/jamcams.tfl.gov.uk\/00001.06507.jpg?1472110141","source":"jamcams-camera-list.xml","refresh":true,"refresh_seconds":10,"type":"live-feed"},{"id":"0000108009","lat":51.5527,"lng":-0.25521,"icon":44,"title":"A406 NCR\/Grt Central Way","url":"http:\/\/www.comroads.com\/live-feed\/a406-ncrgrt-central-way-0000108009","cc":"GB","tu":"https:\/\/s3-eu-west-1.amazonaws.com\/jamcams.tfl.gov.uk\/00001.08009.jpg?1472110141","source":"jamcams-camera-list.xml","refresh":true,"refresh_seconds":10,"type":"live-feed"},{"id":"0000200607","lat":51.5098,"lng":-0.00254,"icon":44,"title":"EIDT West Ramp Gantry","url":"http:\/\/www.comroads.com\/live-feed\/eidt-west-ramp-gantry-0000200607","cc":"GB","tu":"https:\/\/s3-eu-west-1.amazonaws.com\/jamcams.tfl.gov.uk\/00002.00607.jpg?1472110141","source":"jamcams-camera-list.xml","refresh":true,"refresh_seconds":10,"type":"live-feed"},{"id":"0000104245","lat":51.499,"lng":-0.10493,"icon":44,"title":"Blackfriars Rd\/St George","url":"http:\/\/www.comroads.com\/live-feed\/blackfriars-rdst-george-0000104245","cc":"GB","tu":"https:\/\/s3-eu-west-1.amazonaws.com\/jamcams.tfl.gov.uk\/00001.04245.jpg?1472110141","source":"jamcams-camera-list.xml","refresh":true,"refresh_seconds":10,"type":"live-feed"},{"id":"0000102258","lat":51.5124,"lng":-0.032,"icon":44,"title":"A13 Commercial Road\/Salmon Lane","url":"http:\/\/www.comroads.com\/live-feed\/a13-commercial-roadsalmon-lane-0000102258","cc":"GB","tu":"https:\/\/s3-eu-west-1.amazonaws.com\/jamcams.tfl.gov.uk\/00001.02258.jpg?1472110141","source":"jamcams-camera-list.xml","refresh":true,"refresh_seconds":10,"type":"live-feed"},{"id":"0000109606","lat":51.56,"lng":-0.11566,"icon":44,"title":"Seven Sisters Rd by Sussex Way","url":"http:\/\/www.comroads.com\/live-feed\/seven-sisters-rd-by-sussex-way-0000109606","cc":"GB","tu":"https:\/\/s3-eu-west-1.amazonaws.com\/jamcams.tfl.gov.uk\/00001.09606.jpg?1472110141","source":"jamcams-camera-list.xml","refresh":true,"refresh_seconds":10,"type":"live-feed"},{"id":"0000101420","lat":51.5606,"lng":-0.07056,"icon":44,"title":"A10 North of Brooke Road","url":"http:\/\/www.comroads.com\/live-feed\/a10-north-of-brooke-road-0000101420","cc":"GB","tu":"https:\/\/s3-eu-west-1.amazonaws.com\/jamcams.tfl.gov.uk\/00001.01420.jpg?1472110141","source":"jamcams-camera-list.xml","refresh":true,"refresh_seconds":10,"type":"live-feed"},{"id":"0000104656","lat":51.4167,"lng":-0.17875,"icon":44,"title":"Priory Rd\/Christchurch Rd","url":"http:\/\/www.comroads.com\/live-feed\/priory-rdchristchurch-rd-0000104656","cc":"GB","tu":"https:\/\/s3-eu-west-1.amazonaws.com\/jamcams.tfl.gov.uk\/00001.04656.jpg?1472110141","source":"jamcams-camera-list.xml","refresh":true,"refresh_seconds":10,"type":"live-feed"},{"id":"0000101402","lat":51.5274,"lng":-0.07797,"icon":44,"title":"Kingsland Rd\/Hackney Rd","url":"http:\/\/www.comroads.com\/live-feed\/kingsland-rdhackney-rd-0000101402","cc":"GB","tu":"https:\/\/s3-eu-west-1.amazonaws.com\/jamcams.tfl.gov.uk\/00001.01402.jpg?1472110141","source":"jamcams-camera-list.xml","refresh":true,"refresh_seconds":10,"type":"live-feed"},{"id":"0000200335","lat":51.4556,"lng":0.08867,"icon":44,"title":"A2 Falconwood","url":"http:\/\/www.comroads.com\/live-feed\/a2-falconwood-0000200335","cc":"GB","tu":"https:\/\/s3-eu-west-1.amazonaws.com\/jamcams.tfl.gov.uk\/00002.00335.jpg?1472110141","source":"jamcams-camera-list.xml","refresh":true,"refresh_seconds":10,"type":"live-feed"},{"id":"0000106590","lat":51.5114,"lng":-0.11924,"icon":44,"title":"Strand\/Lancaster Place","url":"http:\/\/www.comroads.com\/live-feed\/strandlancaster-place-0000106590","cc":"GB","tu":"https:\/\/s3-eu-west-1.amazonaws.com\/jamcams.tfl.gov.uk\/00001.06590.jpg?1472110141","source":"jamcams-camera-list.xml","refresh":true,"refresh_seconds":10,"type":"live-feed"},{"id":"0000106614","lat":51.4907,"lng":-0.21425,"icon":44,"title":"Talgarth Rd\/Gliddon Rd","url":"http:\/\/www.comroads.com\/live-feed\/talgarth-rdgliddon-rd-0000106614","cc":"GB","tu":"https:\/\/s3-eu-west-1.amazonaws.com\/jamcams.tfl.gov.uk\/00001.06614.jpg?1472110141","source":"jamcams-camera-list.xml","refresh":true,"refresh_seconds":10,"type":"live-feed"},{"id":"0000104667","lat":51.4522,"lng":-0.14786,"icon":44,"title":"Balham Hill\/Hazelbourne Road","url":"http:\/\/www.comroads.com\/live-feed\/balham-hillhazelbourne-road-0000104667","cc":"GB","tu":"https:\/\/s3-eu-west-1.amazonaws.com\/jamcams.tfl.gov.uk\/00001.04667.jpg?1472110141","source":"jamcams-camera-list.xml","refresh":true,"refresh_seconds":10,"type":"live-feed"},{"id":"0000104376","lat":51.3708,"lng":-0.0973,"icon":44,"title":"Croydon Flyover\/Fell Rd","url":"http:\/\/www.comroads.com\/live-feed\/croydon-flyoverfell-rd-0000104376","cc":"GB","tu":"https:\/\/s3-eu-west-1.amazonaws.com\/jamcams.tfl.gov.uk\/00001.04376.jpg?1472110141","source":"jamcams-camera-list.xml","refresh":true,"refresh_seconds":10,"type":"live-feed"},{"id":"0000109753","lat":51.5828,"lng":-0.09972,"icon":44,"title":"Green Lanes- St Ann","url":"http:\/\/www.comroads.com\/live-feed\/green-lanes-st-ann-0000109753","cc":"GB","tu":"https:\/\/s3-eu-west-1.amazonaws.com\/jamcams.tfl.gov.uk\/00001.09753.jpg?1472110141","source":"jamcams-camera-list.xml","refresh":true,"refresh_seconds":10,"type":"live-feed"},{"id":"0000108004","lat":51.5272,"lng":-0.2922,"icon":44,"title":"Hanger Lane\/Chatsworth Rd","url":"http:\/\/www.comroads.com\/live-feed\/hanger-lanechatsworth-rd-0000108004","cc":"GB","tu":"https:\/\/s3-eu-west-1.amazonaws.com\/jamcams.tfl.gov.uk\/00001.08004.jpg?1472110141","source":"jamcams-camera-list.xml","refresh":true,"refresh_seconds":10,"type":"live-feed"},{"id":"0000104511","lat":51.4517,"lng":-0.12151,"icon":44,"title":"Brixton Hill \/ Elm Park","url":"http:\/\/www.comroads.com\/live-feed\/brixton-hill-elm-park-0000104511","cc":"GB","tu":"https:\/\/s3-eu-west-1.amazonaws.com\/jamcams.tfl.gov.uk\/00001.04511.jpg?1472110141","source":"jamcams-camera-list.xml","refresh":true,"refresh_seconds":10,"type":"live-feed"},{"id":"0000104354","lat":51.3736,"lng":-0.09692,"icon":44,"title":"Park Lane\/Park St","url":"http:\/\/www.comroads.com\/live-feed\/park-lanepark-st-0000104354","cc":"GB","tu":"https:\/\/s3-eu-west-1.amazonaws.com\/jamcams.tfl.gov.uk\/00001.04354.jpg?1472110141","source":"jamcams-camera-list.xml","refresh":true,"refresh_seconds":10,"type":"live-feed"},{"id":"0000101439","lat":51.5252,"lng":-0.07732,"icon":44,"title":"Shoreditch High St\/Batemans Row","url":"http:\/\/www.comroads.com\/live-feed\/shoreditch-high-stbatemans-row-0000101439","cc":"GB","tu":"https:\/\/s3-eu-west-1.amazonaws.com\/jamcams.tfl.gov.uk\/00001.01439.jpg?1472110141","source":"jamcams-camera-list.xml","refresh":true,"refresh_seconds":10,"type":"live-feed"},{"id":"0000107925","lat":51.5417,"lng":-0.19768,"icon":44,"title":"A5 Kilburn High Rd\/Willesden Ln","url":"http:\/\/www.comroads.com\/live-feed\/a5-kilburn-high-rdwillesden-ln-0000107925","cc":"GB","tu":"https:\/\/s3-eu-west-1.amazonaws.com\/jamcams.tfl.gov.uk\/00001.07925.jpg?1472110141","source":"jamcams-camera-list.xml","refresh":true,"refresh_seconds":10,"type":"live-feed"},{"id":"0000107309","lat":51.5262,"lng":-0.27502,"icon":44,"title":"A40 \/Near Mansfield Rd","url":"http:\/\/www.comroads.com\/live-feed\/a40-near-mansfield-rd-0000107309","cc":"GB","tu":"https:\/\/s3-eu-west-1.amazonaws.com\/jamcams.tfl.gov.uk\/00001.07309.jpg?1472110141","source":"jamcams-camera-list.xml","refresh":true,"refresh_seconds":10,"type":"live-feed"},{"id":"0000200827","lat":51.5661,"lng":0.00594,"icon":44,"title":"A12 Dyers Hl E 3830A","url":"http:\/\/www.comroads.com\/live-feed\/a12-dyers-hl-e-3830a-0000200827","cc":"GB","tu":"https:\/\/s3-eu-west-1.amazonaws.com\/jamcams.tfl.gov.uk\/00002.00827.jpg?1472110141","source":"jamcams-camera-list.xml","refresh":true,"refresh_seconds":10,"type":"live-feed"},{"id":"0000107300","lat":51.5157,"lng":-0.12612,"icon":44,"title":"Shaftesbury Ave\/High Holborn","url":"http:\/\/www.comroads.com\/live-feed\/shaftesbury-avehigh-holborn-0000107300","cc":"GB","tu":"https:\/\/s3-eu-west-1.amazonaws.com\/jamcams.tfl.gov.uk\/00001.07300.jpg?1472110141","source":"jamcams-camera-list.xml","refresh":true,"refresh_seconds":10,"type":"live-feed"},{"id":"0000200810","lat":51.5482,"lng":-0.02874,"icon":44,"title":"A12 East Cross Route","url":"http:\/\/www.comroads.com\/live-feed\/a12-east-cross-route-0000200810","cc":"GB","tu":"https:\/\/s3-eu-west-1.amazonaws.com\/jamcams.tfl.gov.uk\/00002.00810.jpg?1472110141","source":"jamcams-camera-list.xml","refresh":true,"refresh_seconds":10,"type":"live-feed"},{"id":"0000108600","lat":51.5152,"lng":-0.17638,"icon":44,"title":"Craven Rd\/Eastborne Terrace","url":"http:\/\/www.comroads.com\/live-feed\/craven-rdeastborne-terrace-0000108600","cc":"GB","tu":"https:\/\/s3-eu-west-1.amazonaws.com\/jamcams.tfl.gov.uk\/00001.08600.jpg?1472110141","source":"jamcams-camera-list.xml","refresh":true,"refresh_seconds":10,"type":"live-feed"},{"id":"0000104658","lat":51.4623,"lng":-0.13729,"icon":44,"title":"Clapham High St\/Venn St","url":"http:\/\/www.comroads.com\/live-feed\/clapham-high-stvenn-st-0000104658","cc":"GB","tu":"https:\/\/s3-eu-west-1.amazonaws.com\/jamcams.tfl.gov.uk\/00001.04658.jpg?1472110141","source":"jamcams-camera-list.xml","refresh":true,"refresh_seconds":10,"type":"live-feed"},{"id":"0000103656","lat":51.4839,"lng":-0.06641,"icon":44,"title":"Old Kent Rd\/St James Rd","url":"http:\/\/www.comroads.com\/live-feed\/old-kent-rdst-james-rd-0000103656","cc":"GB","tu":"https:\/\/s3-eu-west-1.amazonaws.com\/jamcams.tfl.gov.uk\/00001.03656.jpg?1472110141","source":"jamcams-camera-list.xml","refresh":true,"refresh_seconds":10,"type":"live-feed"},{"id":"0000200265","lat":51.4571,"lng":0.06597,"icon":44,"title":"A2 Glenesk\/Rochester","url":"http:\/\/www.comroads.com\/live-feed\/a2-gleneskrochester-0000200265","cc":"GB","tu":"https:\/\/s3-eu-west-1.amazonaws.com\/jamcams.tfl.gov.uk\/00002.00265.jpg?1472110141","source":"jamcams-camera-list.xml","refresh":true,"refresh_seconds":10,"type":"live-feed"},{"id":"0000103702","lat":51.4624,"lng":-0.0089,"icon":44,"title":"A20 Lee High Rd\/Belmont Hill","url":"http:\/\/www.comroads.com\/live-feed\/a20-lee-high-rdbelmont-hill-0000103702","cc":"GB","tu":"https:\/\/s3-eu-west-1.amazonaws.com\/jamcams.tfl.gov.uk\/00001.03702.jpg?1472110141","source":"jamcams-camera-list.xml","refresh":true,"refresh_seconds":10,"type":"live-feed"},{"id":"0000200329","lat":51.5113,"lng":-0.01077,"icon":44,"title":"A13 Cotton St","url":"http:\/\/www.comroads.com\/live-feed\/a13-cotton-st-0000200329","cc":"GB","tu":"https:\/\/s3-eu-west-1.amazonaws.com\/jamcams.tfl.gov.uk\/00002.00329.jpg?1472110141","source":"jamcams-camera-list.xml","refresh":true,"refresh_seconds":10,"type":"live-feed"},{"id":"0000104650","lat":51.4609,"lng":-0.13953,"icon":44,"title":"A3 Clapham Cmon Southside\/Long Rd","url":"http:\/\/www.comroads.com\/live-feed\/a3-clapham-cmon-southsidelong-rd-0000104650","cc":"GB","tu":"https:\/\/s3-eu-west-1.amazonaws.com\/jamcams.tfl.gov.uk\/00001.04650.jpg?1472110141","source":"jamcams-camera-list.xml","refresh":true,"refresh_seconds":10,"type":"live-feed"},{"id":"0000104532","lat":51.4198,"lng":-0.128,"icon":44,"title":"A23 Streatham H Rd\/Streatham Cmn","url":"http:\/\/www.comroads.com\/live-feed\/a23-streatham-h-rdstreatham-cmn-0000104532","cc":"GB","tu":"https:\/\/s3-eu-west-1.amazonaws.com\/jamcams.tfl.gov.uk\/00001.04532.jpg?1472110141","source":"jamcams-camera-list.xml","refresh":true,"refresh_seconds":10,"type":"live-feed"},{"id":"0000104654","lat":51.4135,"lng":-0.19269,"icon":44,"title":"A24 Morden Rd\/Merantun Way","url":"http:\/\/www.comroads.com\/live-feed\/a24-morden-rdmerantun-way-0000104654","cc":"GB","tu":"https:\/\/s3-eu-west-1.amazonaws.com\/jamcams.tfl.gov.uk\/00001.04654.jpg?1472110141","source":"jamcams-camera-list.xml","refresh":true,"refresh_seconds":10,"type":"live-feed"},{"id":"0000109801","lat":51.5896,"lng":-0.0643,"icon":44,"title":"MONUMENT WAY\/PARK VIEW ROAD","url":"http:\/\/www.comroads.com\/live-feed\/monument-waypark-view-road-0000109801","cc":"GB","tu":"https:\/\/s3-eu-west-1.amazonaws.com\/jamcams.tfl.gov.uk\/00001.09801.jpg?1472110141","source":"jamcams-camera-list.xml","refresh":true,"refresh_seconds":10,"type":"live-feed"},{"id":"0000108001","lat":51.5169,"lng":-0.2912,"icon":44,"title":"Hanger Lane\/Queens Parade","url":"http:\/\/www.comroads.com\/live-feed\/hanger-lanequeens-parade-0000108001","cc":"GB","tu":"https:\/\/s3-eu-west-1.amazonaws.com\/jamcams.tfl.gov.uk\/00001.08001.jpg?1472110141","source":"jamcams-camera-list.xml","refresh":true,"refresh_seconds":10,"type":"live-feed"},{"id":"0000104343","lat":51.4772,"lng":-0.10062,"icon":44,"title":"Camberwell New Rd\/Lotian Rd","url":"http:\/\/www.comroads.com\/live-feed\/camberwell-new-rdlotian-rd-0000104343","cc":"GB","tu":"https:\/\/s3-eu-west-1.amazonaws.com\/jamcams.tfl.gov.uk\/00001.04343.jpg?1472110141","source":"jamcams-camera-list.xml","refresh":true,"refresh_seconds":10,"type":"live-feed"},{"id":"0000102312","lat":51.5083,"lng":0.01685,"icon":44,"title":"Silvertown Way\/Tidal Basin Rd","url":"http:\/\/www.comroads.com\/live-feed\/silvertown-waytidal-basin-rd-0000102312","cc":"GB","tu":"https:\/\/s3-eu-west-1.amazonaws.com\/jamcams.tfl.gov.uk\/00001.02312.jpg?1472110141","source":"jamcams-camera-list.xml","refresh":true,"refresh_seconds":10,"type":"live-feed"},{"id":"0000102301","lat":51.5217,"lng":0.02102,"icon":44,"title":"Barking Rd\/Chargable Lane","url":"http:\/\/www.comroads.com\/live-feed\/barking-rdchargable-lane-0000102301","cc":"GB","tu":"https:\/\/s3-eu-west-1.amazonaws.com\/jamcams.tfl.gov.uk\/00001.02301.jpg?1472110141","source":"jamcams-camera-list.xml","refresh":true,"refresh_seconds":10,"type":"live-feed"},{"id":"0000104542","lat":51.4085,"lng":-0.12186,"icon":44,"title":"London Rd\/Craignish Av","url":"http:\/\/www.comroads.com\/live-feed\/london-rdcraignish-av-0000104542","cc":"GB","tu":"https:\/\/s3-eu-west-1.amazonaws.com\/jamcams.tfl.gov.uk\/00001.04542.jpg?1472110141","source":"jamcams-camera-list.xml","refresh":true,"refresh_seconds":10,"type":"live-feed"},{"id":"0000104526","lat":51.4653,"lng":-0.11407,"icon":44,"title":"A23 Brixton Rd\/Stockwell Rd","url":"http:\/\/www.comroads.com\/live-feed\/a23-brixton-rdstockwell-rd-0000104526","cc":"GB","tu":"https:\/\/s3-eu-west-1.amazonaws.com\/jamcams.tfl.gov.uk\/00001.04526.jpg?1472110141","source":"jamcams-camera-list.xml","refresh":true,"refresh_seconds":10,"type":"live-feed"},{"id":"0000102315","lat":51.5303,"lng":0.03772,"icon":44,"title":"Barking Rd\/Green St","url":"http:\/\/www.comroads.com\/live-feed\/barking-rdgreen-st-0000102315","cc":"GB","tu":"https:\/\/s3-eu-west-1.amazonaws.com\/jamcams.tfl.gov.uk\/00001.02315.jpg?1472110141","source":"jamcams-camera-list.xml","refresh":true,"refresh_seconds":10,"type":"live-feed"},{"id":"0000106570","lat":51.4913,"lng":-0.22749,"icon":44,"title":"Hammersmith Bridge Rd","url":"http:\/\/www.comroads.com\/live-feed\/hammersmith-bridge-rd-0000106570","cc":"GB","tu":"https:\/\/s3-eu-west-1.amazonaws.com\/jamcams.tfl.gov.uk\/00001.06570.jpg?1472110141","source":"jamcams-camera-list.xml","refresh":true,"refresh_seconds":10,"type":"live-feed"},{"id":"0000109703","lat":51.534,"lng":-0.10518,"icon":44,"title":"Upper St Nth\/Duncan St","url":"http:\/\/www.comroads.com\/live-feed\/upper-st-nthduncan-st-0000109703","cc":"GB","tu":"https:\/\/s3-eu-west-1.amazonaws.com\/jamcams.tfl.gov.uk\/00001.09703.jpg?1472110141","source":"jamcams-camera-list.xml","refresh":true,"refresh_seconds":10,"type":"live-feed"},{"id":"0000102259","lat":51.5117,"lng":-0.02756,"icon":44,"title":"East India Dock Rd\/Amoy Pl","url":"http:\/\/www.comroads.com\/live-feed\/east-india-dock-rdamoy-pl-0000102259","cc":"GB","tu":"https:\/\/s3-eu-west-1.amazonaws.com\/jamcams.tfl.gov.uk\/00001.02259.jpg?1472110141","source":"jamcams-camera-list.xml","refresh":true,"refresh_seconds":10,"type":"live-feed"},{"id":"0000104623","lat":51.4607,"lng":-0.16652,"icon":44,"title":"Battersea Rise\/Northcote Rd","url":"http:\/\/www.comroads.com\/live-feed\/battersea-risenorthcote-rd-0000104623","cc":"GB","tu":"https:\/\/s3-eu-west-1.amazonaws.com\/jamcams.tfl.gov.uk\/00001.04623.jpg?1472110141","source":"jamcams-camera-list.xml","refresh":true,"refresh_seconds":10,"type":"live-feed"},{"id":"0000102147","lat":51.551,"lng":-0.00402,"icon":44,"title":"Major Rd\/Crownfield Rd","url":"http:\/\/www.comroads.com\/live-feed\/major-rdcrownfield-rd-0000102147","cc":"GB","tu":"https:\/\/s3-eu-west-1.amazonaws.com\/jamcams.tfl.gov.uk\/00001.02147.jpg?1472110141","source":"jamcams-camera-list.xml","refresh":true,"refresh_seconds":10,"type":"live-feed"},{"id":"0000104475","lat":51.4801,"lng":-0.12441,"icon":44,"title":"South Lambeth Rd\/Walton Cl","url":"http:\/\/www.comroads.com\/live-feed\/south-lambeth-rdwalton-cl-0000104475","cc":"GB","tu":"https:\/\/s3-eu-west-1.amazonaws.com\/jamcams.tfl.gov.uk\/00001.04475.jpg?1472110141","source":"jamcams-camera-list.xml","refresh":true,"refresh_seconds":10,"type":"live-feed"},{"id":"0000102351","lat":51.509,"lng":-0.06754,"icon":44,"title":"The Highway\/Vaughan Way","url":"http:\/\/www.comroads.com\/live-feed\/the-highwayvaughan-way-0000102351","cc":"GB","tu":"https:\/\/s3-eu-west-1.amazonaws.com\/jamcams.tfl.gov.uk\/00001.02351.jpg?1472110141","source":"jamcams-camera-list.xml","refresh":true,"refresh_seconds":10,"type":"live-feed"},{"id":"0000200867","lat":51.6036,"lng":-0.02199,"icon":44,"title":"A406 Golf Range","url":"http:\/\/www.comroads.com\/live-feed\/a406-golf-range-0000200867","cc":"GB","tu":"https:\/\/s3-eu-west-1.amazonaws.com\/jamcams.tfl.gov.uk\/00002.00867.jpg?1472110141","source":"jamcams-camera-list.xml","refresh":true,"refresh_seconds":10,"type":"live-feed"},{"id":"0000104507","lat":51.466,"lng":-0.11345,"icon":44,"title":"Brixton Rd\/Stockwell Pk","url":"http:\/\/www.comroads.com\/live-feed\/brixton-rdstockwell-pk-0000104507","cc":"GB","tu":"https:\/\/s3-eu-west-1.amazonaws.com\/jamcams.tfl.gov.uk\/00001.04507.jpg?1472110141","source":"jamcams-camera-list.xml","refresh":true,"refresh_seconds":10,"type":"live-feed"},{"id":"0000109714","lat":51.5646,"lng":-0.13214,"icon":44,"title":"Holloway Rd Sth\/Hargrave Rd","url":"http:\/\/www.comroads.com\/live-feed\/holloway-rd-sthhargrave-rd-0000109714","cc":"GB","tu":"https:\/\/s3-eu-west-1.amazonaws.com\/jamcams.tfl.gov.uk\/00001.09714.jpg?1472110141","source":"jamcams-camera-list.xml","refresh":true,"refresh_seconds":10,"type":"live-feed"},{"id":"0000104678","lat":51.3768,"lng":-0.22177,"icon":44,"title":"London Rd\/Staines Av","url":"http:\/\/www.comroads.com\/live-feed\/london-rdstaines-av-0000104678","cc":"GB","tu":"https:\/\/s3-eu-west-1.amazonaws.com\/jamcams.tfl.gov.uk\/00001.04678.jpg?1472110141","source":"jamcams-camera-list.xml","refresh":true,"refresh_seconds":10,"type":"live-feed"},{"id":"0000102105","lat":51.5212,"lng":-0.04894,"icon":44,"title":"Mile End Rd\/Cephas Ave","url":"http:\/\/www.comroads.com\/live-feed\/mile-end-rdcephas-ave-0000102105","cc":"GB","tu":"https:\/\/s3-eu-west-1.amazonaws.com\/jamcams.tfl.gov.uk\/00001.02105.jpg?1472110141","source":"jamcams-camera-list.xml","refresh":true,"refresh_seconds":10,"type":"live-feed"},{"id":"0000106516","lat":51.4967,"lng":-0.14379,"icon":44,"title":"Victoria St\/Buckingham Palace Rd","url":"http:\/\/www.comroads.com\/live-feed\/victoria-stbuckingham-palace-rd-0000106516","cc":"GB","tu":"https:\/\/s3-eu-west-1.amazonaws.com\/jamcams.tfl.gov.uk\/00001.06516.jpg?1472110141","source":"jamcams-camera-list.xml","refresh":true,"refresh_seconds":10,"type":"live-feed"},{"id":"0000106923","lat":51.4807,"lng":-0.42447,"icon":44,"title":"Bath Rd \/ Oxford Ave","url":"http:\/\/www.comroads.com\/live-feed\/bath-rd-oxford-ave-0000106923","cc":"GB","tu":"https:\/\/s3-eu-west-1.amazonaws.com\/jamcams.tfl.gov.uk\/00001.06923.jpg?1472110141","source":"jamcams-camera-list.xml","refresh":true,"refresh_seconds":10,"type":"live-feed"},{"id":"0000101615","lat":51.5547,"lng":-0.01696,"icon":44,"title":"Ruckholt Rd\/Sherrin Rd","url":"http:\/\/www.comroads.com\/live-feed\/ruckholt-rdsherrin-rd-0000101615","cc":"GB","tu":"https:\/\/s3-eu-west-1.amazonaws.com\/jamcams.tfl.gov.uk\/00001.01615.jpg?1472110141","source":"jamcams-camera-list.xml","refresh":true,"refresh_seconds":10,"type":"live-feed"},{"id":"0000108859","lat":51.5144,"lng":-0.1494,"icon":44,"title":"Oxford St\/Davies St","url":"http:\/\/www.comroads.com\/live-feed\/oxford-stdavies-st-0000108859","cc":"GB","tu":"https:\/\/s3-eu-west-1.amazonaws.com\/jamcams.tfl.gov.uk\/00001.08859.jpg?1472110141","source":"jamcams-camera-list.xml","refresh":true,"refresh_seconds":10,"type":"live-feed"},{"id":"0000106624","lat":51.4422,"lng":-0.3654,"icon":44,"title":"Hospital Bridge Rd","url":"http:\/\/www.comroads.com\/live-feed\/hospital-bridge-rd-0000106624","cc":"GB","tu":"https:\/\/s3-eu-west-1.amazonaws.com\/jamcams.tfl.gov.uk\/00001.06624.jpg?1472110141","source":"jamcams-camera-list.xml","refresh":true,"refresh_seconds":10,"type":"live-feed"},{"id":"0000104327","lat":51.4887,"lng":-0.12974,"icon":44,"title":"Millbank\/Vauxhall Bridge","url":"http:\/\/www.comroads.com\/live-feed\/millbankvauxhall-bridge-0000104327","cc":"GB","tu":"https:\/\/s3-eu-west-1.amazonaws.com\/jamcams.tfl.gov.uk\/00001.04327.jpg?1472110141","source":"jamcams-camera-list.xml","refresh":true,"refresh_seconds":10,"type":"live-feed"},{"id":"0000104566","lat":51.3766,"lng":-0.11977,"icon":44,"title":"Purley Way\/Beddington Farm Rd","url":"http:\/\/www.comroads.com\/live-feed\/purley-waybeddington-farm-rd-0000104566","cc":"GB","tu":"https:\/\/s3-eu-west-1.amazonaws.com\/jamcams.tfl.gov.uk\/00001.04566.jpg?1472110141","source":"jamcams-camera-list.xml","refresh":true,"refresh_seconds":10,"type":"live-feed"},{"id":"0000101437","lat":51.617,"lng":-0.0866,"icon":44,"title":"Grt Cambridge Rd\/A406 NCR Rabout","url":"http:\/\/www.comroads.com\/live-feed\/grt-cambridge-rda406-ncr-rabout-0000101437","cc":"GB","tu":"https:\/\/s3-eu-west-1.amazonaws.com\/jamcams.tfl.gov.uk\/00001.01437.jpg?1472110141","source":"jamcams-camera-list.xml","refresh":true,"refresh_seconds":10,"type":"live-feed"},{"id":"0000102002","lat":51.5095,"lng":-0.08671,"icon":44,"title":"Lower Thames St\/London Bridge","url":"http:\/\/www.comroads.com\/live-feed\/lower-thames-stlondon-bridge-0000102002","cc":"GB","tu":"https:\/\/s3-eu-west-1.amazonaws.com\/jamcams.tfl.gov.uk\/00001.02002.jpg?1472110141","source":"jamcams-camera-list.xml","refresh":true,"refresh_seconds":10,"type":"live-feed"},{"id":"0000108954","lat":51.5428,"lng":-0.17519,"icon":44,"title":"A41 Finchley Rd\/115 Swiss Cottage","url":"http:\/\/www.comroads.com\/live-feed\/a41-finchley-rd115-swiss-cottage-0000108954","cc":"GB","tu":"https:\/\/s3-eu-west-1.amazonaws.com\/jamcams.tfl.gov.uk\/00001.08954.jpg?1472110141","source":"jamcams-camera-list.xml","refresh":true,"refresh_seconds":10,"type":"live-feed"},{"id":"0000107304","lat":51.5154,"lng":-0.21693,"icon":44,"title":"A3220 Northern Roundabout","url":"http:\/\/www.comroads.com\/live-feed\/a3220-northern-roundabout-0000107304","cc":"GB","tu":"https:\/\/s3-eu-west-1.amazonaws.com\/jamcams.tfl.gov.uk\/00001.07304.jpg?1472110141","source":"jamcams-camera-list.xml","refresh":true,"refresh_seconds":10,"type":"live-feed"},{"id":"0000106608","lat":51.4951,"lng":-0.18254,"icon":44,"title":"A4 Cromwell Rd\/Gloucester Rd","url":"http:\/\/www.comroads.com\/live-feed\/a4-cromwell-rdgloucester-rd-0000106608","cc":"GB","tu":"https:\/\/s3-eu-west-1.amazonaws.com\/jamcams.tfl.gov.uk\/00001.06608.jpg?1472110141","source":"jamcams-camera-list.xml","refresh":true,"refresh_seconds":10,"type":"live-feed"},{"id":"0000107350","lat":51.5262,"lng":-0.08771,"icon":44,"title":"City Road\/Old Street","url":"http:\/\/www.comroads.com\/live-feed\/city-roadold-street-0000107350","cc":"GB","tu":"https:\/\/s3-eu-west-1.amazonaws.com\/jamcams.tfl.gov.uk\/00001.07350.jpg?1472110141","source":"jamcams-camera-list.xml","refresh":true,"refresh_seconds":10,"type":"live-feed"},{"id":"0000200325","lat":51.5103,"lng":-0.00684,"icon":44,"title":"Blackwall Nth Portal","url":"http:\/\/www.comroads.com\/live-feed\/blackwall-nth-portal-0000200325","cc":"GB","tu":"https:\/\/s3-eu-west-1.amazonaws.com\/jamcams.tfl.gov.uk\/00002.00325.jpg?1472110141","source":"jamcams-camera-list.xml","refresh":true,"refresh_seconds":10,"type":"live-feed"},{"id":"0000106604","lat":51.4872,"lng":-0.25186,"icon":44,"title":"A4 Hogarth Roundabout","url":"http:\/\/www.comroads.com\/live-feed\/a4-hogarth-roundabout-0000106604","cc":"GB","tu":"https:\/\/s3-eu-west-1.amazonaws.com\/jamcams.tfl.gov.uk\/00001.06604.jpg?1472110141","source":"jamcams-camera-list.xml","refresh":true,"refresh_seconds":10,"type":"live-feed"},{"id":"0000104563","lat":51.3835,"lng":-0.12116,"icon":44,"title":"Purley Way\/Newman Rd","url":"http:\/\/www.comroads.com\/live-feed\/purley-waynewman-rd-0000104563","cc":"GB","tu":"https:\/\/s3-eu-west-1.amazonaws.com\/jamcams.tfl.gov.uk\/00001.04563.jpg?1472110141","source":"jamcams-camera-list.xml","refresh":true,"refresh_seconds":10,"type":"live-feed"},{"id":"0000104680","lat":51.5011,"lng":-0.09317,"icon":44,"title":"Borough High St\/Grt Dover St","url":"http:\/\/www.comroads.com\/live-feed\/borough-high-stgrt-dover-st-0000104680","cc":"GB","tu":"https:\/\/s3-eu-west-1.amazonaws.com\/jamcams.tfl.gov.uk\/00001.04680.jpg?1472110141","source":"jamcams-camera-list.xml","refresh":true,"refresh_seconds":10,"type":"live-feed"},{"id":"0000101462","lat":51.6341,"lng":-0.06968,"icon":44,"title":"Grt Cambridge Rd\/Bury St","url":"http:\/\/www.comroads.com\/live-feed\/grt-cambridge-rdbury-st-0000101462","cc":"GB","tu":"https:\/\/s3-eu-west-1.amazonaws.com\/jamcams.tfl.gov.uk\/00001.01462.jpg?1472110141","source":"jamcams-camera-list.xml","refresh":true,"refresh_seconds":10,"type":"live-feed"},{"id":"0000108006","lat":51.5606,"lng":-0.25377,"icon":44,"title":"Neasden Ln North\/A406","url":"http:\/\/www.comroads.com\/live-feed\/neasden-ln-northa406-0000108006","cc":"GB","tu":"https:\/\/s3-eu-west-1.amazonaws.com\/jamcams.tfl.gov.uk\/00001.08006.jpg?1472110141","source":"jamcams-camera-list.xml","refresh":true,"refresh_seconds":10,"type":"live-feed"},{"id":"0000200854","lat":51.5931,"lng":0.03633,"icon":44,"title":"CHARLIE BROWNS ROUNDABOUT","url":"http:\/\/www.comroads.com\/live-feed\/charlie-browns-roundabout-0000200854","cc":"GB","tu":"https:\/\/s3-eu-west-1.amazonaws.com\/jamcams.tfl.gov.uk\/00002.00854.jpg?1472110141","source":"jamcams-camera-list.xml","refresh":true,"refresh_seconds":10,"type":"live-feed"},{"id":"0000104683","lat":51.3957,"lng":-0.24955,"icon":44,"title":"A3 Kingston Bypass\/College Gds","url":"http:\/\/www.comroads.com\/live-feed\/a3-kingston-bypasscollege-gds-0000104683","cc":"GB","tu":"https:\/\/s3-eu-west-1.amazonaws.com\/jamcams.tfl.gov.uk\/00001.04683.jpg?1472110141","source":"jamcams-camera-list.xml","refresh":true,"refresh_seconds":10,"type":"live-feed"},{"id":"0000103608","lat":51.52,"lng":-0.10586,"icon":44,"title":"Farringdon Rd\/Cowcross St","url":"http:\/\/www.comroads.com\/live-feed\/farringdon-rdcowcross-st-0000103608","cc":"GB","tu":"https:\/\/s3-eu-west-1.amazonaws.com\/jamcams.tfl.gov.uk\/00001.03608.jpg?1472110141","source":"jamcams-camera-list.xml","refresh":true,"refresh_seconds":10,"type":"live-feed"},{"id":"0000103765","lat":51.4422,"lng":-0.03345,"icon":44,"title":"Stanstead Rd\/Blythe Hill Lane","url":"http:\/\/www.comroads.com\/live-feed\/stanstead-rdblythe-hill-lane-0000103765","cc":"GB","tu":"https:\/\/s3-eu-west-1.amazonaws.com\/jamcams.tfl.gov.uk\/00001.03765.jpg?1472110141","source":"jamcams-camera-list.xml","refresh":true,"refresh_seconds":10,"type":"live-feed"},{"id":"0000106714","lat":51.465,"lng":-0.26212,"icon":44,"title":"A205 Upper Rmond Rd\/East Sheen Ave","url":"http:\/\/www.comroads.com\/live-feed\/a205-upper-rmond-rdeast-sheen-ave-0000106714","cc":"GB","tu":"https:\/\/s3-eu-west-1.amazonaws.com\/jamcams.tfl.gov.uk\/00001.06714.jpg?1472110141","source":"jamcams-camera-list.xml","refresh":true,"refresh_seconds":10,"type":"live-feed"},{"id":"0000104567","lat":51.3603,"lng":-0.11737,"icon":44,"title":"A23 Purley Way\/Queensway","url":"http:\/\/www.comroads.com\/live-feed\/a23-purley-wayqueensway-0000104567","cc":"GB","tu":"https:\/\/s3-eu-west-1.amazonaws.com\/jamcams.tfl.gov.uk\/00001.04567.jpg?1472110141","source":"jamcams-camera-list.xml","refresh":true,"refresh_seconds":10,"type":"live-feed"},{"id":"0000104513","lat":51.4378,"lng":-0.12696,"icon":44,"title":"A23 Streatham Hill\/Sternhold Ave","url":"http:\/\/www.comroads.com\/live-feed\/a23-streatham-hillsternhold-ave-0000104513","cc":"GB","tu":"https:\/\/s3-eu-west-1.amazonaws.com\/jamcams.tfl.gov.uk\/00001.04513.jpg?1472110141","source":"jamcams-camera-list.xml","refresh":true,"refresh_seconds":10,"type":"live-feed"},{"id":"0000104641","lat":51.4798,"lng":-0.14879,"icon":44,"title":"Queenstwn Rd\/Chelsea Bridge","url":"http:\/\/www.comroads.com\/live-feed\/queenstwn-rdchelsea-bridge-0000104641","cc":"GB","tu":"https:\/\/s3-eu-west-1.amazonaws.com\/jamcams.tfl.gov.uk\/00001.04641.jpg?1472110141","source":"jamcams-camera-list.xml","refresh":true,"refresh_seconds":10,"type":"live-feed"},{"id":"0000108962","lat":51.5414,"lng":-0.17552,"icon":44,"title":"Finchley Rd Sth of Hillgrove Rd","url":"http:\/\/www.comroads.com\/live-feed\/finchley-rd-sth-of-hillgrove-rd-0000108962","cc":"GB","tu":"https:\/\/s3-eu-west-1.amazonaws.com\/jamcams.tfl.gov.uk\/00001.08962.jpg?1472110141","source":"jamcams-camera-list.xml","refresh":true,"refresh_seconds":10,"type":"live-feed"},{"id":"0000106647","lat":51.4918,"lng":-0.28207,"icon":44,"title":"Chiswick Roundabout (Northside)","url":"http:\/\/www.comroads.com\/live-feed\/chiswick-roundabout-northside-0000106647","cc":"GB","tu":"https:\/\/s3-eu-west-1.amazonaws.com\/jamcams.tfl.gov.uk\/00001.06647.jpg?1472110141","source":"jamcams-camera-list.xml","refresh":true,"refresh_seconds":10,"type":"live-feed"},{"id":"0000106625","lat":51.4647,"lng":-0.26725,"icon":44,"title":"A205 Upper RMond Rd\/Sheen Lane","url":"http:\/\/www.comroads.com\/live-feed\/a205-upper-rmond-rdsheen-lane-0000106625","cc":"GB","tu":"https:\/\/s3-eu-west-1.amazonaws.com\/jamcams.tfl.gov.uk\/00001.06625.jpg?1472110141","source":"jamcams-camera-list.xml","refresh":true,"refresh_seconds":10,"type":"live-feed"},{"id":"0000105982","lat":51.4606,"lng":-0.21706,"icon":44,"title":"Upper Richmond Rd\/Putney Hill","url":"http:\/\/www.comroads.com\/live-feed\/upper-richmond-rdputney-hill-0000105982","cc":"GB","tu":"https:\/\/s3-eu-west-1.amazonaws.com\/jamcams.tfl.gov.uk\/00001.05982.jpg?1472110141","source":"jamcams-camera-list.xml","refresh":true,"refresh_seconds":10,"type":"live-feed"},{"id":"0000109617","lat":51.5794,"lng":-0.08098,"icon":44,"title":"Seven Sisters Rd\/St Ann","url":"http:\/\/www.comroads.com\/live-feed\/seven-sisters-rdst-ann-0000109617","cc":"GB","tu":"https:\/\/s3-eu-west-1.amazonaws.com\/jamcams.tfl.gov.uk\/00001.09617.jpg?1472110141","source":"jamcams-camera-list.xml","refresh":true,"refresh_seconds":10,"type":"live-feed"},{"id":"0000108002","lat":51.522,"lng":-0.26373,"icon":44,"title":"A40 Horn Ln\/Gypsy Crn","url":"http:\/\/www.comroads.com\/live-feed\/a40-horn-lngypsy-crn-0000108002","cc":"GB","tu":"https:\/\/s3-eu-west-1.amazonaws.com\/jamcams.tfl.gov.uk\/00001.08002.jpg?1472110141","source":"jamcams-camera-list.xml","refresh":true,"refresh_seconds":10,"type":"live-feed"},{"id":"0000103673","lat":51.4745,"lng":-0.04214,"icon":44,"title":"A2 New Cross R\/Harts Ln","url":"http:\/\/www.comroads.com\/live-feed\/a2-new-cross-rharts-ln-0000103673","cc":"GB","tu":"https:\/\/s3-eu-west-1.amazonaws.com\/jamcams.tfl.gov.uk\/00001.03673.jpg?1472110141","source":"jamcams-camera-list.xml","refresh":true,"refresh_seconds":10,"type":"live-feed"},{"id":"0000107376","lat":51.5279,"lng":-0.2158,"icon":44,"title":"Harrow Rd\/Kilburn Lane","url":"http:\/\/www.comroads.com\/live-feed\/harrow-rdkilburn-lane-0000107376","cc":"GB","tu":"https:\/\/s3-eu-west-1.amazonaws.com\/jamcams.tfl.gov.uk\/00001.07376.jpg?1472110141","source":"jamcams-camera-list.xml","refresh":true,"refresh_seconds":10,"type":"live-feed"},{"id":"0000107377","lat":51.532,"lng":-0.23728,"icon":44,"title":"Scrubs Lane\/Harrow Rd","url":"http:\/\/www.comroads.com\/live-feed\/scrubs-laneharrow-rd-0000107377","cc":"GB","tu":"https:\/\/s3-eu-west-1.amazonaws.com\/jamcams.tfl.gov.uk\/00001.07377.jpg?1472110141","source":"jamcams-camera-list.xml","refresh":true,"refresh_seconds":10,"type":"live-feed"},{"id":"0000104529","lat":51.4363,"lng":-0.12771,"icon":44,"title":"A23 Streatham H Rd\/Mnt Ephrian Rd","url":"http:\/\/www.comroads.com\/live-feed\/a23-streatham-h-rdmnt-ephrian-rd-0000104529","cc":"GB","tu":"https:\/\/s3-eu-west-1.amazonaws.com\/jamcams.tfl.gov.uk\/00001.04529.jpg?1472110141","source":"jamcams-camera-list.xml","refresh":true,"refresh_seconds":10,"type":"live-feed"},{"id":"0000104340","lat":51.4734,"lng":-0.08757,"icon":44,"title":"Camberwell Ch St\/Vicarage Grve","url":"http:\/\/www.comroads.com\/live-feed\/camberwell-ch-stvicarage-grve-0000104340","cc":"GB","tu":"https:\/\/s3-eu-west-1.amazonaws.com\/jamcams.tfl.gov.uk\/00001.04340.jpg?1472110141","source":"jamcams-camera-list.xml","refresh":true,"refresh_seconds":10,"type":"live-feed"},{"id":"0000109096","lat":51.4989,"lng":0.06368,"icon":44,"title":"Pier Road\/Woolwich Ferry","url":"http:\/\/www.comroads.com\/live-feed\/pier-roadwoolwich-ferry-0000109096","cc":"GB","tu":"https:\/\/s3-eu-west-1.amazonaws.com\/jamcams.tfl.gov.uk\/00001.09096.jpg?1472110141","source":"jamcams-camera-list.xml","refresh":true,"refresh_seconds":10,"type":"live-feed"},{"id":"0000106551","lat":51.4821,"lng":-0.17321,"icon":44,"title":"Battersea Bridge\/Cheyne Wk","url":"http:\/\/www.comroads.com\/live-feed\/battersea-bridgecheyne-wk-0000106551","cc":"GB","tu":"https:\/\/s3-eu-west-1.amazonaws.com\/jamcams.tfl.gov.uk\/00001.06551.jpg?1472110141","source":"jamcams-camera-list.xml","refresh":true,"refresh_seconds":10,"type":"live-feed"},{"id":"0000102263","lat":51.5128,"lng":-0.00081,"icon":44,"title":"East India Dock Rd\/Leamouth Rd","url":"http:\/\/www.comroads.com\/live-feed\/east-india-dock-rdleamouth-rd-0000102263","cc":"GB","tu":"https:\/\/s3-eu-west-1.amazonaws.com\/jamcams.tfl.gov.uk\/00001.02263.jpg?1472110141","source":"jamcams-camera-list.xml","refresh":true,"refresh_seconds":10,"type":"live-feed"},{"id":"0000102260","lat":51.5109,"lng":-0.02134,"icon":44,"title":"East India Dock Rd\/Upper Nth St","url":"http:\/\/www.comroads.com\/live-feed\/east-india-dock-rdupper-nth-st-0000102260","cc":"GB","tu":"https:\/\/s3-eu-west-1.amazonaws.com\/jamcams.tfl.gov.uk\/00001.02260.jpg?1472110141","source":"jamcams-camera-list.xml","refresh":true,"refresh_seconds":10,"type":"live-feed"},{"id":"0000104527","lat":51.4606,"lng":-0.11628,"icon":44,"title":"A23 Brixton Hill\/Effra Rd","url":"http:\/\/www.comroads.com\/live-feed\/a23-brixton-hilleffra-rd-0000104527","cc":"GB","tu":"https:\/\/s3-eu-west-1.amazonaws.com\/jamcams.tfl.gov.uk\/00001.04527.jpg?1472110141","source":"jamcams-camera-list.xml","refresh":true,"refresh_seconds":10,"type":"live-feed"},{"id":"0000104651","lat":51.4541,"lng":-0.14608,"icon":44,"title":"Clapham Common Southside","url":"http:\/\/www.comroads.com\/live-feed\/clapham-common-southside-0000104651","cc":"GB","tu":"https:\/\/s3-eu-west-1.amazonaws.com\/jamcams.tfl.gov.uk\/00001.04651.jpg?1472110141","source":"jamcams-camera-list.xml","refresh":true,"refresh_seconds":10,"type":"live-feed"},{"id":"0000104503","lat":51.4812,"lng":-0.11065,"icon":44,"title":"Camberwell New Rd\/Brixton Rd","url":"http:\/\/www.comroads.com\/live-feed\/camberwell-new-rdbrixton-rd-0000104503","cc":"GB","tu":"https:\/\/s3-eu-west-1.amazonaws.com\/jamcams.tfl.gov.uk\/00001.04503.jpg?1472110141","source":"jamcams-camera-list.xml","refresh":true,"refresh_seconds":10,"type":"live-feed"},